price,bedrooms,sqfts,longitude,name,latitude,bathrooms_level_two,streetAddress,country,locality,postal,region,housing_type,links,sauna,pool,steam
"$3,000",1,784ft2,-122.812341,White Rock Condo across from ocean,49.023295,1.0,1160 Oxford St,CA,White Rock,V4B3P5,BC,Apartment,https://vancouver.craigslist.org/rds/apa/d/white-rock-white-rock-condo-across-from/7581092960.html,False,,
"$3,495",2,1000ft2,-123.032026,NORTH SHORE LIVING - Best Floor Plan - 2bd/2bth @ Compass- UNFURNISHED,49.312385,2.0,,CA,North Vancouver,V7J2L5,BC,Apartment,https://vancouver.craigslist.org/nvn/apa/d/north-vancouver-north-shore-living-best/7585253457.html,True,,True
"$5,300",1,733ft2,-123.078688,"- --(OBsold.com)-- Stunning Furnished 1bd+den, monthly rental",49.310206,1.0,,CA,North Vancouver,V7L0E3,BC,Apartment,https://vancouver.craigslist.org/nvn/apa/d/north-vancouver-obsoldcom-stunning/7582125288.html,True,,True
"$4,500",3,1550ft2,-123.097900,Vancouver West Townhouse three (3) Bedroom,49.215600,4.0,,CA,Vancouver,V5X,BC,Apartment,https://vancouver.craigslist.org/van/apa/d/vancouver-vancouver-west-townhouse/7579735887.html,False,,
"$1,900",1,,-123.055115,Apartment for rent,49.074691,1.0,Scott Road,CA,Delta,V4K3X7,BC,Apartment,https://vancouver.craigslist.org/rds/apa/d/delta-apartment-for-rent/7584251089.html,False,,
"$4,295",2,1225ft2,-123.129800,"Underground parking, Quartz countertops, 2 elevators",49.283300,2.0,1022 Nelson Street,CA,Vancouver,V6E,BC,Apartment,https://vancouver.craigslist.org/van/apa/d/vancouver-underground-parking-quartz/7572673342.html,False,,
"$2,300",2,,-123.047424,Furnished 2 bedroom 1 bath suite near skytrain,49.249708,1.0,,CA,Vancouver,V5R1A7,BC,Apartment,https://vancouver.craigslist.org/van/apa/d/vancouver-furnished-bedroom-bath-suite/7581904936.html,False,,
"$3,800",2,820ft2,-123.116930,Brand new 2 Bed 2 Bath with Air Conditioner at The Pacific in Downtown,49.274169,2.0,889 Pacific Blvd,CA,Vancouver,V6Z3A3,BC,Apartment,https://vancouver.craigslist.org/van/apa/d/vancouver-brand-new-bed-bath-with-air/7585307570.html,False,,
"$3,950",2,800ft2,-123.113900,2 bedroom + 1 den furnished codo in Yaletown,49.278800,1.0,Smithe,CA,Vancouver,V6B2P2,BC,Apartment,https://vancouver.craigslist.org/van/apa/d/vancouver-bedroom-den-furnished-codo-in/7577594537.html,True,True,
"$2,850",1,509ft2,-123.113900,Pet Welcome Furnished 1 Bedroom@ 1325 Rolston -Available March 1st,49.278800,1.0,1325 Rolston Street,CA,Vancouver,V6B0A2,BC,Apartment,https://vancouver.craigslist.org/van/apa/d/vancouver-pet-welcome-furnished-bedroom/7569845557.html,False,,
"$4,995",2,1600ft2,-123.275056,(MANDERGROUP.COM) Sea Breeze....,49.376276,2.0,,CA,West Vancouver,V7W2B2,BC,Apartment,https://vancouver.craigslist.org/nvn/apa/d/west-vancouver-mandergroupcom-sea-breeze/7580761925.html,False,,
"$2,800",2,794ft2,-123.116800,"Richmond ""TEMPO"" Rooftop 2Br+1bath unit for Rent!",49.183600,1.0,,CA,Richmond,V6X1K3,BC,Apartment,https://vancouver.craigslist.org/rch/apa/d/richmond-richmond-tempo-rooftop/7580747962.html,False,True,
"$3,800",2,850ft2,-123.002694,Station Square 6 Brand New 2 bed 2 bath for Rent,49.229383,2.0,"6000 Mckay Ave, Burnaby",CA,Burnaby,V5H4M4,BC,Apartment,https://vancouver.craigslist.org/bnc/apa/d/burnaby-station-square-brand-new-bed/7579978358.html,False,,
"$2,800",3,,-122.856900,3  bedroom house   for    rent,49.141000,1.0,12111,CA,Surrey Upper West,V3W,BC,Apartment,https://vancouver.craigslist.org/rds/apa/d/surrey-upper-west-bedroom-house-for-rent/7576850031.html,False,,
"$2,350",1,510ft2,-122.965000,concord brentwood brand new condo,49.244000,1.0,4720 Lougheed Hwy,CA,Burnaby,V5E2S8,BC,Apartment,https://vancouver.craigslist.org/bnc/apa/d/burnaby-concord-brentwood-brand-new/7581788856.html,False,,
"$2,500",2,,-122.995200,2 Bedroom + Den for Rent - 6676 Nelson Ave,49.230200,1.0,,CA,Burnaby,V5H3G1,BC,Apartment,https://vancouver.craigslist.org/bnc/apa/d/burnaby-bedroom-den-for-rent-nelson-ave/7585646879.html,False,,
$950,,170ft2,,,,,,,,,,,https://vancouver.craigslist.org/rds/apa/d/surrey-studio-in-morgan-creek-grandview/7584385224.html,False,,
,1,,-122.871600,Best location one bedroom basement for rent,49.265000,1.0,,CA,Coquitlam North,V3J,BC,House,https://vancouver.craigslist.org/pml/apa/d/coquitlam-north-best-location-one/7582887082.html,False,,
"$1,400",4,688ft2,-123.191769,Terra Nova 4 Beds 3 Bath whole house for rent,49.169423,3.0,pearkes dr,CA,Richmond,V7C5R1,BC,House,https://vancouver.craigslist.org/rch/apa/d/richmond-terra-nova-beds-bath-whole/7585423902.html,False,,
"$4,800",3,2750ft2,-123.133360,"★ ★ 3 Bd/3 Bath + Storage, Beautiful View  ★",49.188264,3.0,no 3 rd,CA,Richmond,V6X1R5,BC,Apartment,https://vancouver.craigslist.org/rch/apa/d/richmond-bd-bath-storage-beautiful-view/7579151757.html,True,True,True
"$3,880",2,1357ft2,-123.045851,Brand New Laneway House for Rent,49.221869,1.0,6849 Killarney st,CA,Vancouver,V5S2Y3,BC,House,https://vancouver.craigslist.org/van/apa/d/vancouver-brand-new-laneway-house-for/7575052382.html,False,,
"$2,800",2,0960ft2,-123.114400,Beautiful corner suite 2 bdrm1bthrm in Olympic Village,49.268123,1.0,West 1st Avenue,CA,Vancouver,V5Y0E7,BC,Apartment,https://vancouver.craigslist.org/van/apa/d/vancouver-beautiful-corner-suite/7585354123.html,False,,
"$3,585",3,750ft2,-123.030546,Entire house for rent,49.243723,2.0,,CA,Vancouver,V5R5P2,BC,House,https://vancouver.craigslist.org/van/apa/d/vancouver-entire-house-for-rent/7580040766.html,False,,
"$3,600",2,1100ft2,-122.992808,Looking for girl to be roommates!,49.223284,2.0,6638 dunblane st,CA,Burnaby,V5H3K5,BC,Apartment,https://vancouver.craigslist.org/bnc/apa/d/burnaby-looking-for-girl-to-be-roommates/7580685373.html,False,True,
"$1,500",1,,-122.829047,BRAND NEW Luxury Tower! 7th Floor,49.278594,1.0,,CA,Port Moody,V3H0E6,BC,Apartment,https://vancouver.craigslist.org/pml/apa/d/port-moody-brand-new-luxury-tower-7th/7566512477.html,True,True,
"$2,350",1,680ft2,-123.150138,FURNISHED-Available April 1st - Pet Welcome 1 Bedroom@1985 W 8th Ave,49.264701,1.0,1985 W 8th Avenue,CA,Vancouver,V6K0C6,BC,Apartment,https://vancouver.craigslist.org/van/apa/d/vancouver-furnished-available-april-1st/7564872808.html,False,,
"$2,750",2,475ft2,-123.130689,Rarely Available! 3 Level Townhome @ Pomaria w/Large Patio - Now,49.275110,3.0,,CA,Vancouver,V6Z2N8,BC,House,https://vancouver.craigslist.org/van/apa/d/vancouver-rarely-available-level/7585354175.html,True,,True
"$5,500",1,1306ft2,-123.117371,"Fully Furnished, Serviced One Bedroom Apartment in Downtown Vancouver",49.284275,1.0,Howe,CA,Vancouver,V6C2E5,BC,Apartment,https://vancouver.craigslist.org/van/apa/d/vancouver-fully-furnished-serviced-one/7585719688.html,False,True,
"$4,800",3,425ft2,-122.857600,Townhouse for rent 3 bed 3 bath,49.106700,3.0,,CA,Surrey Lower West,V3X,BC,Apartment,https://vancouver.craigslist.org/rds/apa/d/surrey-lower-west-townhouse-for-rent/7574330632.html,False,,
"$2,850",1,,-123.059227,Nanaimo St 1Br 1 Den Rental Suite Available,49.216006,1.0,Nanaimo Street,CA,Vancouver,V5P4M4,BC,House,https://vancouver.craigslist.org/van/apa/d/vancouver-nanaimo-st-1br-den-rental/7582191202.html,False,,
"$2,000",3,750ft2,-123.121373,Concord Garden | 1100sqft 3 Bedroom + 2 Parking (EV Ready),49.190173,2.0,8988 Patterson Road,CA,Richmond,V6X1P9,BC,Apartment,https://vancouver.craigslist.org/van/apa/d/richmond-concord-garden-1100sqft/7571823733.html,False,True,
"$3,500",1,1100ft2,-123.132655,AVAILABLE May 1st- Pet Allowed Furnished 1 Bedroom @ 1540 Haro,49.288252,1.0,1540 Haro Street,CA,Vancouver,V6G1G3,BC,Apartment,https://vancouver.craigslist.org/van/apa/d/vancouver-available-may-1st-pet-allowed/7579784380.html,False,,
"$2,500",1,500ft2,-123.112535,"FURNISHED TOP FLOOR MODERN,CENTRAL, 1 BEDROOM + Flex Room & Balcony",49.232777,1.0,488 W 41st Ave,CA,Vancouver,V5Y2T2,BC,Apartment,https://vancouver.craigslist.org/van/apa/d/vancouver-furnished-top-floor/7572372211.html,False,,
"$3,100",3,550ft2,-123.185196,vintage house 3 beds/1 bath fully furnished for 1-3 months rental,49.249976,1.0,Dunbar St.,CA,Vancouver,V6S0G8,BC,House,https://vancouver.craigslist.org/van/apa/d/vancouver-vintage-house-beds-bath-fully/7578234698.html,False,,
"$4,500",1,,-123.066700,1 Bedroom Apartment for Rent - 2184 Wall St,49.279500,1.0,,CA,Vancouver,V5L1W7,BC,Apartment,https://vancouver.craigslist.org/van/apa/d/vancouver-bedroom-apartment-for-rent/7585639521.html,False,,
"$1,600",,,,,,,,,,,,,https://vancouver.craigslist.org/van/apa/d/vancouver-available-may-1st-new-west/7579773995.html,False,,
"$2,850",1,407ft2,-123.070401,"Fabulous Lonsdale! Unfurnished One bedroom, View, Balcony",49.320272,1.0,,CA,North Vancouver,V7L2L3,BC,Apartment,https://vancouver.craigslist.org/nvn/apa/d/north-vancouver-fabulous-lonsdale/7584689582.html,False,True,
,2,,-122.845400,2 Bedroom suite,49.189400,1.0,10159,CA,Surrey Inner Northwest,V3T,BC,House,https://vancouver.craigslist.org/rds/apa/d/surrey-inner-northwest-bedroom-suite/7574648609.html,False,,
"$2,475",1,600ft2,-123.053784,Cozy 1 Bedroom +1 washroom+ 1Den Basement Unit,49.314825,1.0,,CA,North Vancouver,V7L2A2,BC,House,https://vancouver.craigslist.org/van/apa/d/north-vancouver-cozy-bedroom-washroom/7578132561.html,False,,
"$1,650",4,,-123.081958,Vanpm.com Mount Pleasant 4 Bed 3.5 Bath Mount Pleasant Duplex,49.260863,4.0,,CA,Vancouver,V5T2G1,BC,Apartment,https://vancouver.craigslist.org/van/apa/d/vancouver-vanpmcom-mount-pleasant-bed/7578873551.html,False,,
"$2,000",,700ft2,,,,,,,,,,,https://vancouver.craigslist.org/rch/apa/d/richmond-furnished-bachelor-suite/7569212682.html,False,,
"$4,250",1,1600ft2,-123.127685,Fully furnished spacious 1bd1ba w/ office AND flex solarium,49.263202,1.0,,CA,Vancouver,V6H1E3,BC,Apartment,https://vancouver.craigslist.org/van/apa/d/vancouver-fully-furnished-spacious/7573555304.html,False,,
"$1,500",3,235ft2,-123.083742,Furnished 3 Bedroom Townhouse (1-6 months),49.252708,3.0,3600 Windsor Street,CA,Vancouver,V5V4N2,BC,House,https://vancouver.craigslist.org/van/apa/d/vancouver-furnished-bedroom-townhouse-6/7574687492.html,False,,
,5,,-122.912400,Five Bedroom House For Rent,49.155100,2.0,115 Street,CA,Delta Northeast,V4C,BC,House,https://vancouver.craigslist.org/rds/apa/d/delta-northeast-five-bedroom-house-for/7584335042.html,False,,
"$2,890",2,596ft2,-122.616400,Above Ground 2 Bdrm Suite,49.219600,1.0,,CA,Maple Ridge,V2X3A9,BC,House,https://vancouver.craigslist.org/pml/apa/d/maple-ridge-above-ground-bdrm-suite/7585672695.html,False,,
"$4,300",3,1600ft2,-122.992100,3 bedrooms,49.203800,2.0,,CA,Burnaby,V5J,BC,House,https://vancouver.craigslist.org/bnc/apa/d/burnaby-bedrooms/7584675785.html,False,,
"$3,800",,2700ft2,,,,,,,,,,,https://vancouver.craigslist.org/van/apa/d/vancouver-lovely-studio-at-the-duke/7576031787.html,False,,
"$1,900",1,1000ft2,-122.908446,Bright 1Bedroom/in suite laundry/water view/close to Skytrain,49.204540,1.0,527 Carnarvon Street,CA,New Westminster,V3L0J4,BC,Apartment,https://vancouver.craigslist.org/bnc/apa/d/new-westminster-bright-1bedroom-in/7578944066.html,False,,
"$3,000",4,,-123.083400,Coming Soon Lo Lo 4 Bed 4 Bath Duplex brand new,49.322200,4.0,,CA,North Vancouver,V7M1S7,BC,Apartment,https://vancouver.craigslist.org/nvn/apa/d/north-vancouver-coming-soon-lo-lo-bed/7578304636.html,False,,
"$2,355",3,417ft2,-122.796449,3 bed 2 bath Coquitlam center westwood plateau,49.283082,2.0,,CA,Coquitlam,V3B0B2,BC,Apartment,https://vancouver.craigslist.org/pml/apa/d/coquitlam-bed-bath-coquitlam-center/7585591086.html,False,True,
,1,,-122.817578,"1 Bedroom Bsmt For Rent In Fleetwood, Surrey",49.155517,1.0,,CA,Surrey,V3S9K1,BC,House,https://vancouver.craigslist.org/rds/apa/d/surrey-bedroom-bsmt-for-rent-in/7584364695.html,False,,
"$2,345",2,622ft2,-123.124316,Brand new 2 bed 2bath condo North Van,49.325399,2.0,,CA,North Vancouver,V7P1X4,BC,Apartment,https://vancouver.craigslist.org/nvn/apa/d/north-vancouver-brand-new-bed-2bath/7578326131.html,False,True,
"$5,200",2,1900ft2,-122.873000,2 BED and den 2 bath Huge 2200 sq ft Penthouse Condo,49.188900,2.0,120 th Street,CA,Surrey Outer Northwest,V3V,BC,Apartment,https://vancouver.craigslist.org/rds/apa/d/surrey-outer-northwest-bed-and-den-bath/7581373133.html,False,,
"$3,995",1,,-123.097900,Beautiful and Bright 1 br condo,49.215600,1.0,Fraser St.,CA,Vancouver,V5X,BC,Apartment,https://vancouver.craigslist.org/van/apa/d/vancouver-beautiful-and-bright-br-condo/7583379049.html,False,,
"$1,350",,,,,,,,,,,,,https://vancouver.craigslist.org/van/apa/d/vancouver-new-building-pet-friendly/7584708804.html,False,,
"$4,500",2,825ft2,-122.902744,Call me Home near Queens Park,49.209930,1.0,52 Royal Avenue,CA,New Westminster,V3L2G1,BC,Apartment,https://vancouver.craigslist.org/bnc/apa/d/new-westminster-call-me-home-near/7585037035.html,False,,
"$2,800",1,2200ft2,-122.995200,Brand new 1 bedroom apartment available now,49.230200,1.0,,CA,Burnaby,V5H3G1,BC,Apartment,https://vancouver.craigslist.org/bnc/apa/d/burnaby-brand-new-bedroom-apartment/7573937579.html,False,,
"$2,300",2,550ft2,-123.133628,Deluxe 2-Bedroom at Prado,49.173652,2.0,8180 Lansdowne Road,CA,Richmond,V6X3Y9,BC,Apartment,https://vancouver.craigslist.org/rch/apa/d/richmond-deluxe-bedroom-at-prado/7583337247.html,False,,
"$2,750",1,422ft2,-123.134569,One Bedroom Unit Available In South Granville,49.258591,1.0,,CA,Vancouver,V6H1R1,BC,Apartment,https://vancouver.craigslist.org/van/apa/d/vancouver-one-bedroom-unit-available-in/7585684813.html,False,,
,2,,-122.956554,(ORCA_REF#7058B)***TOP OF THE HOUSE! Amazing Area!***,49.266976,1.0,7058 Buchanan Street,CA,Burnaby,V5A3J5,BC,House,https://vancouver.craigslist.org/bnc/apa/d/burnaby-orcaref7058btop-of-the-house/7584359016.html,False,,
"$1,750",2,780ft2,-123.007400,Amazing Brentwood 57th Floor Condo,49.274000,2.0,4510 Halifax Way,CA,Burnaby,V5C,BC,Apartment,https://vancouver.craigslist.org/bnc/apa/d/burnaby-amazing-brentwood-57th-floor/7586039021.html,False,,
"$2,800",2,,-123.132200,Large Two bedroom with Two bathroom- Great Location,49.255900,2.0,1234,CA,Vancouver,V6H,BC,Apartment,https://vancouver.craigslist.org/van/apa/d/vancouver-large-two-bedroom-with-two/7569127927.html,False,,
"$2,995",1,1200ft2,-123.105712,GASTOWN LOFT - BEAUTIFULLY FURNISHED,49.283456,1.0,,CA,Vancouver,V6B8P6,BC,Apartment,https://vancouver.craigslist.org/van/apa/d/vancouver-gastown-loft-beautifully/7584335636.html,False,,True
"$1,900",2,,-123.128526,"Yaletown 2b2b new townhouse(2021), rooftop patio(unfurnished)",49.276926,2.0,1283 Howe St,CA,Vancouver,V6Z2R5,BC,House,https://vancouver.craigslist.org/van/apa/d/vancouver-yaletown-2b2b-new/7582922882.html,False,,
"$3,400",2,1698ft2,-122.755300,2 bed 1 bath basement suite,49.079100,1.0,181st,CA,Surrey East,V3S,BC,Apartment,https://vancouver.craigslist.org/rds/apa/d/surrey-east-bed-bath-basement-suite/7585426865.html,False,,
"$3,400",,922ft2,,,,,,,,,,,https://vancouver.craigslist.org/van/apa/d/vancouver-beautiful-studio-at-the-duke/7582921566.html,False,,
"$2,700",2,,-122.926607,Waterfront 2 -Bedroom suite,49.318446,1.0,Turtlehead Road,CA,Belcarra,V3H4P2,BC,Apartment,https://vancouver.craigslist.org/pml/apa/d/belcarra-waterfront-bedroom-suite/7582577791.html,False,,
"$3,800",1,900ft2,-122.938400,"High Ceiling, 1 Bedroom, In Suite Laundry, Gym - 700sqft",49.188600,1.0,,CA,New Westminster Southwest,V3M,BC,Apartment,https://vancouver.craigslist.org/bnc/apa/d/new-westminster-southwest-high-ceiling/7578979654.html,False,,
"$3,850",1,950ft2,-123.123824,Executive 1 Bedroom + Den Fully Furnished in heart of Coal Harbour,49.287792,1.0,1189 Melville st,CA,Vancouver,V6E2Y1,BC,Apartment,https://vancouver.craigslist.org/van/apa/d/vancouver-executive-bedroom-den-fully/7579353613.html,True,True,
"$1,600",4,900ft2,-123.087700,Full House for rent in Tsawwassen w/ in law suite,49.033100,3.0,,CA,Delta Southwest,V4M,BC,Apartment,https://vancouver.craigslist.org/rds/apa/d/delta-southwest-full-house-for-rent-in/7579817562.html,False,,
"$2,355",1,417ft2,-123.115294,Centrally Located Bright & Cozy Vancouver Condo w/ Ocean View,49.277996,1.0,821 Cambie Street,CA,Vancouver,V6B0B4,BC,Apartment,https://vancouver.craigslist.org/van/apa/d/vancouver-centrally-located-bright-cozy/7581707585.html,False,,
,3,,-122.770329,South Surrey Brand new Townhouse for reent,49.040325,3.0,2070 oak meadows dr,CA,Surrey,V3Z0W6,BC,House,https://vancouver.craigslist.org/rds/apa/d/surrey-south-surrey-brand-new-townhouse/7570864764.html,False,,
"$3,200",2,800ft2,-122.857600,"2 bedroom, ground level suite",49.106700,1.0,,CA,Surrey Lower West,V3X,BC,House,https://vancouver.craigslist.org/rds/apa/d/surrey-lower-west-bedroom-ground-level/7565252418.html,False,,
"$2,500",1,700ft2,-122.995731,Brand New 1BR Condo @ Concord Brentwood - Available Now,49.265325,1.0,,CA,Burnaby,V5C0A5,BC,Apartment,https://vancouver.craigslist.org/bnc/apa/d/burnaby-brand-new-1br-condo-concord/7585676901.html,False,,
"$2,995",2,690ft2,-122.989444,2 Bedroom + 2 Bath unfurnished apartment,49.264290,2.0,Douglas Road,CA,Burnaby,V5B4V2,BC,Apartment,https://vancouver.craigslist.org/bnc/apa/d/burnaby-bedroom-bath-unfurnished/7577738115.html,False,,
"$4,250",1,,-123.098760,Mount Pleasant One Bedroom plus den Condo - 690sq feet,49.260929,1.0,,CA,Vancouver,V5T0A2,BC,Apartment,https://vancouver.craigslist.org/van/apa/d/vancouver-mount-pleasant-one-bedroom/7586010726.html,False,,
"$2,400",2,568ft2,-123.117206,Furnished Short Term Apartment SMART9 at Governor's Tower 388 Drake St,49.275148,2.0,,CA,Vancouver,V6Z2W1,BC,Apartment,https://vancouver.craigslist.org/van/apa/d/vancouver-furnished-short-term/7577826878.html,False,True,
"$3,100",5,1366ft2,-122.825100,Prosprise realty- Luxury 5 beds 5 baths Duplex in Surrey Ref#123109,49.106400,5.0,161 Street,CA,Surrey,V3Z,BC,Apartment,https://vancouver.craigslist.org/rds/apa/d/surrey-prosprise-realty-luxury-beds/7571732485.html,False,True,
"$1,600",1,,-122.805800,"Underground and covered parking, Private balconies, Secure building",49.025900,1.0,1371 Blackwood Street,CA,White Rock,V4B3W6,BC,Apartment,https://vancouver.craigslist.org/rds/apa/d/white-rock-underground-and-covered/7577139275.html,False,,
"$2,380",1,535ft2,-123.008466,"Unfurnished 1 Bedroom + Den Condo for Rent at Madison, Burnaby Heights",49.281181,1.0,4307 Hastings,CA,Burnaby,V5C2J7,BC,Apartment,https://vancouver.craigslist.org/bnc/apa/d/burnaby-unfurnished-bedroom-den-condo/7585259442.html,False,,
"$3,100",3,930ft2,-123.109306,Executive Townhouse with City and Water Views,49.271573,3.0,,CA,Vancouver,V5Y0E5,BC,House,https://vancouver.craigslist.org/van/apa/d/vancouver-executive-townhouse-with-city/7573654757.html,False,,
"$2,900",1,,-122.930100,1 bedroom townhouse in Edmonds.,49.227500,1.0,,CA,Burnaby,V3N,BC,House,https://vancouver.craigslist.org/bnc/apa/d/burnaby-bedroom-townhouse-in-edmonds/7583354009.html,False,,
"$4,500",3,1200ft2,-122.733000,New renovated single house upper floor 3 bed 2 bath huge covered sundec,49.171000,2.0,"15724 Broome Rd Surrey, BC V4A 5E3 Canada",CA,Surrey Northeast,V4N,BC,House,https://vancouver.craigslist.org/rds/apa/d/surrey-northeast-new-renovated-single/7576761299.html,False,,
"$4,500",1,3700ft2,-123.078397,(UniqueAccommodations.com) ID:5163 Lower Lonsdale Pinnacle 1-bed,49.310646,1.0,133 E Esplanade,CA,North Vancouver,V7L0A7,BC,Apartment,https://vancouver.craigslist.org/nvn/apa/d/north-vancouver-uniqueaccommodationscom/7577052858.html,True,True,True
"$2,650",2,758ft2,-122.790406,Beautiful Large Two bedrooms South Facing unit in Coquitlam Centre!,49.282671,2.0,Glen Drive,CA,Coquitlam,V3B7S2,BC,Apartment,https://vancouver.craigslist.org/pml/apa/d/coquitlam-beautiful-large-two-bedrooms/7581830156.html,False,,
"$2,400",3,667ft2,-122.968297,3 bedroom 1.5 bath house with view,49.269329,2.0,Lochdale,CA,Burnaby,V5B2M7,BC,Apartment,https://vancouver.craigslist.org/bnc/apa/d/burnaby-bedroom-15-bath-house-with-view/7570107085.html,False,,
"$9,000",3,1200ft2,-123.049278,Brand New 3 Bedroom Duplex for rent @Collingwood,49.235399,3.0,38th Ave,CA,Vancouver,V5R3S1,BC,Apartment,https://vancouver.craigslist.org/van/apa/d/vancouver-brand-new-bedroom-duplex-for/7580093356.html,False,,
"$1,332",2,,-123.130000,Unfurnished  2 Bed  2 Bath Condo w/ Water Views,49.276700,2.0,,CA,Vancouver,V6Z1W7,BC,Apartment,https://vancouver.craigslist.org/van/apa/d/vancouver-unfurnished-bed-bath-condo/7580076672.html,True,True,True
"$2,699",1,1500ft2,-122.837963,1 BEDROOM private suite-Surrey Best Location,49.193349,1.0,,CA,Surrey,V3T4K3,BC,Apartment,https://vancouver.craigslist.org/bnc/apa/d/surrey-bedroom-private-suite-surrey/7582724944.html,False,,
"$3,950",4,560ft2,-122.853348,"Surrey Central - Luxury 4 Bed 3 Bath Penthouse - 3 Levels, Patio, AC",49.190775,3.0,,CA,Surrey,V3T4A4,BC,Apartment,https://vancouver.craigslist.org/rds/apa/d/surrey-surrey-central-luxury-bed-bath/7577184411.html,False,,
"$2,850",4,913ft2,-123.253325,"Large, Private House in Caulfield",49.342274,5.0,Caulfield Drive,CA,West Vancouver,V7W1E7,BC,House,https://vancouver.craigslist.org/nvn/apa/d/west-vancouver-large-private-house-in/7578982002.html,False,,
"$3,500",1,1300ft2,-122.755300,1 bedroom basement for rent,49.079100,1.0,150 street,CA,Surrey East,V3S,BC,House,https://vancouver.craigslist.org/rds/apa/d/surrey-east-bedroom-basement-for-rent/7585872905.html,False,,
"$3,650",2,1250ft2,-123.012878,North burnaby 3 rooms about 1200SF,49.267908,2.0,4132 Halifax,CA,Burnaby,V5C5V9,BC,Apartment,https://vancouver.craigslist.org/van/apa/d/burnaby-north-burnaby-rooms-about-1200sf/7574559222.html,False,True,True
"$4,495",4,1100ft2,-122.751100,"Luxury New house 4 bed 3.5bath, Office, Laundry, Good school",49.194100,4.0,10535 170A ST SURREY V4N 5H8,CA,Surrey,V4N4S5,BC,House,https://vancouver.craigslist.org/bnc/apa/d/surrey-luxury-new-house-bed-35bath/7582791073.html,False,,
"$1,650",2,,-123.007400,2 bedroom suite in North Burnaby,49.274000,1.0,,CA,Burnaby,V5C,BC,House,https://vancouver.craigslist.org/nvn/apa/d/burnaby-bedroom-suite-in-north-burnaby/7578339721.html,False,,
"$5,500",2,1861ft2,-122.790200,Two bedroom brand new house's basement for rent,49.069900,1.0,,CA,Surrey,V3Z0V1,BC,Apartment,https://vancouver.craigslist.org/rds/apa/d/surrey-two-bedroom-brand-new-houses/7578756394.html,False,,
"$12,000",1,5000ft2,-122.656260,Large 1 Bed + Den Brand New Apartment for Rent,49.121049,1.0,,CA,Langley,V2Y3E3,BC,Apartment,https://vancouver.craigslist.org/rds/apa/d/langley-large-bed-den-brand-new/7576289573.html,False,,
"$1,300",3,,-123.166000,3 bed + den townhouse in Arbutus Village,49.249700,3.0,,CA,Vancouver,V6L2M5,BC,Apartment,https://vancouver.craigslist.org/van/apa/d/vancouver-bed-den-townhouse-in-arbutus/7577741088.html,False,,
"$3,600",2,1165ft2,-123.177004,Character 2 bedroom Top Floor of House @ 7th and Blenheim,49.265913,1.0,3258 West 7th Avenue,CA,Vancouver,V6K4J3,BC,Apartment,https://vancouver.craigslist.org/van/apa/d/vancouver-character-bedroom-top-floor/7584832736.html,False,,
"$4,200",4,3000ft2,-123.117100,Famous South Arm district 4 bedrooms house,49.120500,3.0,Rosemary Ave,CA,Richmond South,V7A,BC,House,https://vancouver.craigslist.org/rch/apa/d/richmond-south-famous-south-arm/7574170573.html,False,,
"$2,300",2,750ft2,-123.129800,"Quartz countertops, Outdoor patio and BBQ area, LVP flooring",49.283300,1.0,1022 Nelson Street,CA,Vancouver,V6E,BC,Apartment,https://vancouver.craigslist.org/van/apa/d/vancouver-quartz-countertops-outdoor/7563612486.html,False,,
"$1,990",1,650ft2,-122.930100,Furnished available now close to Lougheed Skytrain,49.227500,1.0,,CA,Burnaby,V3N,BC,Apartment,https://vancouver.craigslist.org/rds/apa/d/burnaby-furnished-available-now-close/7578029039.html,False,,
"$2,200",2,713ft2,-123.114900,2 Bed 2 Bathroom Apartment for Rent,49.322000,2.0,"1632 Lions Gate Ln, North Vancouver, BC V7P",CA,North Vancouver Southwest,V7P,BC,Apartment,https://vancouver.craigslist.org/nvn/apa/d/north-vancouver-southwest-bed-bathroom/7581721908.html,False,,
"$4,500",3,2919ft2,-122.881182,3 beds 2baths townhouse in Burcoquitlam,49.242585,3.0,688 edgar ave,CA,Coquitlam,V3K2J3,BC,House,https://vancouver.craigslist.org/pml/apa/d/coquitlam-beds-2baths-townhouse-in/7585072789.html,False,,
"$2,975",4,900ft2,-123.202661,Ultra Customized Morden Luxury House In West Point Grey,49.268929,5.0,4305 Locarno Crescent,CA,Vancouver,V6R4L1,BC,House,https://vancouver.craigslist.org/van/apa/d/vancouver-ultra-customized-morden/7584228501.html,False,,
"$4,200",2,2000ft2,-122.889988,2 Bedroom 2 Bath Penthouse Condo view,49.171455,2.0,120 th Street,CA,Delta,V4C6R8,BC,Apartment,https://vancouver.craigslist.org/rds/apa/d/delta-bedroom-bath-penthouse-condo-view/7580449951.html,False,,
"$3,800",2,691ft2,-123.113900,Furnished 2 Bed 2 Bath Loft in Mainland Street Yaletown,49.278800,2.0,,CA,Vancouver,V6B2P2,BC,Apartment,https://vancouver.craigslist.org/van/apa/d/vancouver-furnished-bed-bath-loft-in/7582599470.html,False,,
"$1,860",2,667ft2,-123.131617,"BRAND NEW, Pets Welcome,Downtown 2 BR-Available March 1@1168 Pendrell",49.282029,1.0,1168 Pendrell Street,CA,Vancouver,V6E4P8,BC,Apartment,https://vancouver.craigslist.org/van/apa/d/vancouver-brand-new-pets/7584715212.html,False,,
"$5,500",4,,-123.151953,Luxury Home in Quiet Cul-de-Sac,49.210202,3.0,Gillnet Place,CA,Vancouver,V6P6P6,BC,House,https://vancouver.craigslist.org/van/apa/d/vancouver-luxury-home-in-quiet-cul-de/7584290239.html,False,,
"$3,500",1,1321ft2,-123.131346,Pet Allowed - Available April 1st - Furnished 1 Bedroom @ 1429 Haro,49.287421,1.0,1429 Haro Street,CA,Vancouver,V6G1G2,BC,Apartment,https://vancouver.craigslist.org/van/apa/d/vancouver-pet-allowed-available-april/7565537893.html,False,,
"$25,000",3,3958ft2,-123.136800,Be VERY Careful!- in regards to the posting shown BELOW- for Rent,49.170000,2.0,,CA,Richmond,V6X3Y5,BC,House,https://vancouver.craigslist.org/rch/apa/d/richmond-be-very-careful-in-regards-to/7575030288.html,True,True,
"$2,250",2,960ft2,-123.067946,2 bedrooms groups floor for rent,49.086648,1.0,,CA,Delta,V4K3W2,BC,House,https://vancouver.craigslist.org/rds/apa/d/delta-bedrooms-groups-floor-for-rent/7583333160.html,False,,
"$5,795",2,1317ft2,-123.123023,2 LEVEL TOWNHOUSE IN COAL HARBOUR,49.287137,3.0,,CA,Vancouver,V6E2X5,BC,House,https://vancouver.craigslist.org/van/apa/d/vancouver-level-townhouse-in-coal/7584022445.html,False,,
"$3,575",1,709ft2,-123.122651,"Beautifully appointed, Immaculate, One Bedroom condo",49.276983,1.0,,CA,Vancouver,V6B5H7,BC,Apartment,https://vancouver.craigslist.org/van/apa/d/vancouver-beautifully-appointed/7584322592.html,False,,
"$7,900",2,3000ft2,-122.900704,"Newly renovated 2BR/1BA Lougheed sky train, SFU, Pets OK",49.252691,1.0,9502 Erickson Drive,CA,Burnaby,V3J7N9,BC,Apartment,https://vancouver.craigslist.org/bnc/apa/d/burnaby-newly-renovated-2br-1ba/7575745238.html,True,True,
"$2,650",1,500ft2,-123.140795,"Cozy One Bedroom Suite with Lots of Character, Pet Friendly!",49.261038,1.0,,CA,Vancouver,V6J3C1,BC,Apartment,https://vancouver.craigslist.org/van/apa/d/vancouver-cozy-one-bedroom-suite-with/7583296550.html,False,,
"$3,200",3,,-123.076310,MODERN 3 BEDROOM TOWNHOUSE IN CENTRAL LOCATION,49.244547,2.0,Knight St,CA,Vancouver,V5N3M6,BC,House,https://vancouver.craigslist.org/van/apa/d/vancouver-modern-bedroom-townhouse-in/7578783963.html,False,,
"$2,000",3,980ft2,-123.139744,Large 3-bedroom w/view,49.292609,3.0,Nelson St,CA,Vancouver,V6G1J2,BC,Apartment,https://vancouver.craigslist.org/van/apa/d/vancouver-large-bedroom-view/7585711540.html,True,True,
"$3,050",3,1000ft2,-123.095326,Entire Townhouse at 11571 Thorpe Rd,49.183886,3.0,,CA,Richmond,V6X1J6,BC,House,https://vancouver.craigslist.org/rch/apa/d/richmond-entire-townhouse-at-thorpe-rd/7584977739.html,False,,
"$2,475",2,600ft2,-123.238449,UBC 2 bedroom suite in house,49.265828,1.0,Western parkway,CA,Vancouver,V6T1R7,BC,House,https://vancouver.craigslist.org/van/apa/d/vancouver-ubc-bedroom-suite-in-house/7584026959.html,False,,
"$3,060",1,1030ft2,-122.805800,"On-site laundry facility, Mirrored closet doors, Private balconies",49.025900,1.0,1371 Blackwood Street,CA,White Rock,V4B3W6,BC,Apartment,https://vancouver.craigslist.org/rds/apa/d/white-rock-on-site-laundry-facility/7578550979.html,False,,
"$2,090",2,500ft2,-122.760887,2bedroom  2 washroom for rent,49.107815,2.0,,CA,Surrey,V3S9T4,BC,House,https://vancouver.craigslist.org/rds/apa/d/surrey-2bedroom-washroom-for-rent/7585951259.html,False,,
"$4,295",1,1400ft2,-123.160322,1 bedroom prime Kitsialno locatio,49.270182,1.0,2nd ave,CA,Vancouver,V6K1J5,BC,Apartment,https://vancouver.craigslist.org/van/apa/d/vancouver-bedroom-prime-kitsialno/7581877386.html,False,,
"$4,800",2,1700ft2,-122.500874,Mobile Home for rent.,49.011848,1.0,,CA,Langley,V4W2K6,BC,House,https://vancouver.craigslist.org/rds/apa/d/langley-mobile-home-for-rent/7578966512.html,False,,
"$3,800",1,1280ft2,-123.198795,Vancouver west side UBC one bedroom for rent,49.235624,3.0,SW Marine Dr.,CA,Vancouver,V6N3M4,BC,Apartment,https://vancouver.craigslist.org/van/apa/d/vancouver-vancouver-west-side-ubc-one/7569133440.html,False,,
"$2,100",2,900ft2,-122.930100,2bed 2bath Brand New Penthouse Suite!,49.227500,2.0,7588,CA,Burnaby,V3N,BC,Apartment,https://vancouver.craigslist.org/bnc/apa/d/burnaby-2bed-2bath-brand-new-penthouse/7584310336.html,False,,
"$1,695",1,615ft2,-123.024516,"1 Bed + Den + Balcony 600 sq ft - Wall Center Central Park - $2,300",49.234711,1.0,ormidale,CA,Vancouver,V5R4P9,BC,Apartment,https://vancouver.craigslist.org/van/apa/d/vancouver-bed-den-balcony-600-sq-ft/7582273454.html,False,,
"$1,850",2,1000ft2,-123.116800,2 bed +Den 2 Bath Condo for Rent,49.183600,2.0,7008 RiverParkway,CA,Richmond,V6X1K3,BC,Apartment,https://vancouver.craigslist.org/rch/apa/d/richmond-bed-den-bath-condo-for-rent/7584578258.html,False,,
"$2,050",3,630ft2,-122.863798,Duplex Upper suite 3 bedroom + 1 bath with large driveway,49.174910,1.0,9687 131st,CA,Surrey,V3V7G1,BC,Apartment,https://vancouver.craigslist.org/rds/apa/d/surrey-duplex-upper-suite-bedroom-bath/7580279451.html,False,,
"$1,600",2,900ft2,-123.071551,"Spacious, 1050 Sq.Ft , 2 Bedroom 1 Bath Garden Suite",49.338338,1.0,124 east Windsor,CA,North Vancouver,V7N3J8,BC,Apartment,https://vancouver.craigslist.org/nvn/apa/d/north-vancouver-spacious-1050-sqft/7582843941.html,False,,
"$1,200",4,1200ft2,-122.829900,4 beds 2 baths suite for rent,49.037400,2.0,,CA,Surrey,V4A7M7,BC,Apartment,https://vancouver.craigslist.org/rds/apa/d/surrey-beds-baths-suite-for-rent/7578676074.html,False,,
"$3,300",2,,-123.097900,2 bedroom basement,49.215600,1.0,Prince  Edwsrd,CA,Vancouver,V5X,BC,House,https://vancouver.craigslist.org/van/apa/d/vancouver-bedroom-basement/7576832664.html,False,,
"$2,300",1,600ft2,-123.017800,Furnished Condo/Everything Included 1 BR + Den at Lynn Valley Centre,49.362200,1.0,,CA,North Vancouver East Central,V7J,BC,Apartment,https://vancouver.craigslist.org/nvn/apa/d/north-vancouver-east-central-furnished/7583017907.html,False,,True
"$2,900",1,900ft2,-122.915318,1 bedroom condo with a balcony,49.208142,1.0,Third Avenue,CA,New Westminster,V3L3A4,BC,Apartment,https://vancouver.craigslist.org/bnc/apa/d/new-westminster-bedroom-condo-with/7581519170.html,False,,
"$2,200",1,1000ft2,-122.805800,"Social room, On-site laundry facility, Private balconies",49.025900,1.0,1371 Blackwood Street,CA,White Rock,V4B3W6,BC,Apartment,https://vancouver.craigslist.org/rds/apa/d/white-rock-social-room-on-site-laundry/7577512990.html,False,,
"$1,900",3,1050ft2,-122.309523,3 bedroom 2 bathroom upper level house,49.137123,2.0,31964,CA,Mission,V2V3S4,BC,House,https://vancouver.craigslist.org/pml/apa/d/mission-bedroom-bathroom-upper-level/7574652956.html,False,,
"$2,850",1,1700ft2,-123.134487,Large 1BR+2 solariums in Fairview,49.263737,1.0,1268 West Broadway,CA,Vancouver,V6H4C2,BC,Apartment,https://vancouver.craigslist.org/van/apa/d/vancouver-large-1br2-solariums-in/7581861513.html,True,True,True
"$2,400",1,,-123.117449,1 bed 1 bath - Cambie Gardens,49.217050,1.0,7418,CA,Vancouver,V6P1X5,BC,Apartment,https://vancouver.craigslist.org/van/apa/d/vancouver-bed-bath-cambie-gardens/7576740582.html,False,,
"$4,000",2,600ft2,-122.605958,Cozy 2 bed 2 bath Well Located Unit,49.221821,2.0,22226 Brown Ave,CA,Maple Ridge,V2X5W1,BC,Apartment,https://vancouver.craigslist.org/pml/apa/d/maple-ridge-cozy-bed-bath-well-located/7581026150.html,False,,
"$1,750",1,560ft2,-123.091700,AVAILABLE IMMEDIATELY Fully furnished executive home - all included,49.232700,2.0,,CA,Vancouver,V5W,BC,House,https://vancouver.craigslist.org/van/apa/d/vancouver-available-immediately-fully/7577744405.html,False,,
"$2,650",3,758ft2,-122.732600,Air Conditioned Townhouse Fleetwood Village 2 by Dawson + Sawyer,49.170700,3.0,,CA,Surrey Northeast,V4N,BC,House,https://vancouver.craigslist.org/rds/apa/d/surrey-northeast-air-conditioned/7572067899.html,False,True,
"$2,500",5,953ft2,-122.833757,5 Bedroom House for rent,49.109293,3.0,,CA,Surrey,V3X1E5,BC,House,https://vancouver.craigslist.org/rds/apa/d/surrey-bedroom-house-for-rent/7574905952.html,False,,
"$2,495",1,712ft2,-123.136529,Large 1 BR Suite; Sunset Beach (Vancouver),49.278689,1.0,1155 Beach Avenue,CA,Vancouver,V6E1V1,BC,Apartment,https://vancouver.craigslist.org/van/apa/d/vancouver-large-br-suite-sunset-beach/7584858571.html,True,True,
"$2,950",3,72000ft2,-123.131057,Pet Welcome - Available NOW - Furnished  3 Bedroom @1405 Haro,49.287237,1.0,1405 Haro Street,CA,Vancouver,V6G1G2,BC,Apartment,https://vancouver.craigslist.org/van/apa/d/vancouver-pet-welcome-available-now/7565564350.html,False,,
"$2,300",1,925ft2,-123.140585,"1Br1Ba Apartment in Marpole Community, Vancouver",49.207069,1.0,8733 Granville Street,CA,Vancouver,V6P5A7,BC,Apartment,https://vancouver.craigslist.org/van/apa/d/vancouver-1br1ba-apartment-in-marpole/7585195574.html,False,,
"$2,800",2,600ft2,-123.129800,"2 elevators, Quartz countertops, Outdoor patio and BBQ area",49.283300,1.0,1022 Nelson Street,CA,Vancouver,V6E,BC,Apartment,https://vancouver.craigslist.org/van/apa/d/vancouver-elevators-quartz-countertops/7582467278.html,False,,
"$3,800",1,1400ft2,-122.805800,"24/7 on site management , Under ground and covered parking.",49.025900,1.0,1371 Blackwood Street,CA,White Rock,V4B3W6,BC,Apartment,https://vancouver.craigslist.org/rds/apa/d/white-rock-24-on-site-management-under/7571329565.html,False,,
"$4,500",3,3000ft2,-122.848692,3 bdrm rancher,49.197572,1.0,,CA,Surrey,V3T5W8,BC,Apartment,https://vancouver.craigslist.org/rds/apa/d/surrey-bdrm-rancher/7578667798.html,False,,
"$2,522",3,600ft2,-123.064127,PET-FRIENDLY BRAND-NEW 3 BED 2 BATH UNFURNISHED GARDEN HOMES,49.252274,2.0,3588 Hull Street,CA,Vancouver,V5N5P1,BC,Apartment,https://vancouver.craigslist.org/van/apa/d/vancouver-pet-friendly-brand-new-bed/7586039502.html,False,,
"$3,990",2,970ft2,-123.067900,North Van Longsdale Single Home Renting out 2Br1Bath Suite!,49.350000,1.0,,CA,North Vancouver Northwest Central,V7N,BC,House,https://vancouver.craigslist.org/nvn/apa/d/north-vancouver-northwest-central-north/7581685685.html,False,,
"$1,680",4,750ft2,-122.780816,Townhouse for Rent April 1 - Pets Welcome,49.159017,3.0,,CA,Surrey,V4N5P7,BC,House,https://vancouver.craigslist.org/rds/apa/d/surrey-townhouse-for-rent-april-pets/7585016082.html,False,,
"$3,650",2,722ft2,-123.147973,Near UBC 2 Bed 1 Bath For Rent,49.238761,1.0,,CA,Vancouver,V6M1K6,BC,Apartment,https://vancouver.craigslist.org/van/apa/d/vancouver-near-ubc-bed-bath-for-rent/7581529585.html,False,,
"$2,195",2,716ft2,-123.140800,Available April 1st - Pet Allowed Furnished 2 Bedroom @1425 Haro,49.299000,1.0,1425 Haro Street,CA,Vancouver,V6G,BC,Apartment,https://vancouver.craigslist.org/van/apa/d/vancouver-available-april-1st-pet/7580960230.html,False,,
"$2,500",4,1500ft2,-123.146347,Offer: Large and Cozy House 4BED + 2BATH // Patio with Hottub,49.332749,2.0,,CA,West Vancouver,V7T2M3,BC,House,https://vancouver.craigslist.org/nvn/apa/d/west-vancouver-offer-large-and-cozy/7585346101.html,False,,
"$4,095",1,1080ft2,-123.027799,Comfortable and Convenient - 1 Bedroom Basement Suite,49.257176,1.0,Grandview Hwy,CA,Vancouver,V5M4X9,BC,House,https://vancouver.craigslist.org/van/apa/d/vancouver-comfortable-and-convenient/7583635111.html,False,,
"$2,500",2,850ft2,-123.123264,"*** Furnished, Resort Style, Panoramic Views, Best Location***",49.325793,2.0,1675 Lions Gate Lane,CA,North Vancouver,V7P1X4,BC,Apartment,https://vancouver.craigslist.org/nvn/apa/d/north-vancouver-furnished-resort-style/7585894800.html,,True,
"$3,600",2,1750ft2,-123.066831,Lower Lonsdale Furnished Renovated 1/2 Duplex w/ Yards,49.309807,2.0,,CA,North Vancouver,V7L3N5,BC,Apartment,https://vancouver.craigslist.org/nvn/apa/d/north-vancouver-lower-lonsdale/7582887314.html,False,,
"$2,300",2,800ft2,-123.033571,Convenient Location  minutes to walk to skytrain Station,49.255369,1.0,Worthington,CA,Vancouver,V5M3V4,BC,House,https://vancouver.craigslist.org/van/apa/d/vancouver-convenient-location-minutes/7582278608.html,False,,
"$3,500",2,675ft2,-122.485100,Gorgeous Open Concept 1000 sq foot Basement Suite $1750,49.206800,2.0,,CA,Maple Ridge East,V2W,BC,Apartment,https://vancouver.craigslist.org/pml/apa/d/maple-ridge-east-gorgeous-open-concept/7567256874.html,False,,
"$5,600",2,2400ft2,-122.784362,Fleetwood - Ground Level 2 Bedroom Basement Suite,49.150915,1.0,,CA,Surrey,V4N0S5,BC,Apartment,https://vancouver.craigslist.org/rds/apa/d/surrey-fleetwood-ground-level-bedroom/7573030905.html,False,,
"$1,900",1,700ft2,-122.925699,"New West 1 BEDROOM - large, Top floor - from February 15th",49.221273,1.0,1115 4th Avenue,CA,Burnaby,V3N3P7,BC,Apartment,https://vancouver.craigslist.org/bnc/apa/d/burnaby-new-west-bedroom-large-top/7585434753.html,False,,
"$4,500",2,832ft2,-123.006141,Spacious 2BD apartment near Metrotown,49.223139,1.0,Telford Ave,CA,Burnaby,V5H2J9,BC,Apartment,https://vancouver.craigslist.org/bnc/apa/d/burnaby-spacious-2bd-apartment-near/7585421776.html,False,,
"$6,750",1,1684ft2,-122.995076,Metrotown huge 1 bed+den concrete condo,49.228682,1.0,6070 MCMURRAY AVE BURNABY V5H 4J3,CA,Burnaby,V5H3J1,BC,Apartment,https://vancouver.craigslist.org/bnc/apa/d/burnaby-metrotown-huge-bedden-concrete/7584648708.html,True,True,
"$2,500",1,,-122.805800,"Stainless steel appliances, Private balconies, Secure building",49.025900,1.0,1371 Blackwood Street,CA,White Rock,V4B3W6,BC,Apartment,https://vancouver.craigslist.org/rds/apa/d/white-rock-stainless-steel-appliances/7563262024.html,False,,
"$1,750",1,,-123.028315,1 Bedroom Bright Ground Level Suite,49.279071,1.0,,CA,Vancouver,V5K2H8,BC,Apartment,https://vancouver.craigslist.org/van/apa/d/vancouver-bedroom-bright-ground-level/7585596603.html,False,,
"$1,600",1,850ft2,-123.136108,"PET ALLOWED, Available March1st- FURNISHED 1 BEDROOM@ 161 W Georgia",49.294169,1.0,161 West Georgia Street,CA,Vancouver,V6G0A3,BC,Apartment,https://vancouver.craigslist.org/van/apa/d/vancouver-pet-allowed-available/7572411699.html,False,,
"$2,100",1,650ft2,-123.133185,"Early move-in for March 1 lease + $750 credit!  Renovated 1BR, Pets OK.",49.283074,1.0,1255 Pendrell St,CA,Vancouver,V6E1L6,BC,Apartment,https://vancouver.craigslist.org/van/apa/d/vancouver-early-move-in-for-march-lease/7585743850.html,False,,
"$2,500",1,850ft2,-122.978935,"Private studio*sublet Feb,21-March,5*",49.221812,1.0,Russell avenue,CA,Burnaby,V5J1G8,BC,Apartment,https://vancouver.craigslist.org/bnc/apa/d/burnaby-private-studiosublet-feb21/7567159163.html,False,,
"$2,500",3,909ft2,-122.783149,Coquitlam 3bedrooms 1 bathroom for rent,49.285721,1.0,,CA,Coquitlam,V3B5Y2,BC,House,https://vancouver.craigslist.org/pml/apa/d/coquitlam-coquitlam-3bedrooms-bathroom/7580806209.html,False,,
"$2,198",1,716ft2,-123.003631,1 BR Condo Station Square 37/F,49.226864,1.0,6098 station street,CA,Burnaby,V5H4L7,BC,Apartment,https://vancouver.craigslist.org/bnc/apa/d/burnaby-br-condo-station-square-37/7563341203.html,False,,
"$1,600",2,450ft2,-123.125378,Two Bedroom Condo Resort in Richmond,49.189796,2.0,,CA,Richmond,V6X2J6,BC,Apartment,https://vancouver.craigslist.org/rch/apa/d/richmond-two-bedroom-condo-resort-in/7580757315.html,False,,
"$2,900",3,537ft2,-122.665915,Brand New ROOFTOP Townhouse,49.150887,3.0,20057,CA,Langley,V2Y2A7,BC,House,https://vancouver.craigslist.org/van/apa/d/langley-brand-new-rooftop-townhouse/7584996870.html,False,,
"$2,499",2,485ft2,-123.116896,BRAND NEW - LUXURIOUS CONDO W/ VIEW @ CAMBIE GARDENS,49.219077,2.0,7433 Cambie Street,CA,Vancouver,V6P6E8,BC,Apartment,https://vancouver.craigslist.org/van/apa/d/vancouver-brand-new-luxurious-condo/7582268292.html,False,,
$650,1,380ft2,-123.012362,Bright 1 bedroom unfurnished townhouse loft available Now,49.264465,2.0,4178 Dawson st,CA,Burnaby,V5C0K1,BC,House,https://vancouver.craigslist.org/bnc/apa/d/burnaby-bright-bedroom-unfurnished/7574334219.html,True,,
"$2,400",2,1100ft2,-123.157388,1 BLOCK TO BEACH!!!  Kitsilano - Character - Laundry - Dishwasher,49.271725,1.0,york avenue,CA,Vancouver,V6K3J2,BC,Apartment,https://vancouver.craigslist.org/van/apa/d/vancouver-block-to-beach-kitsilano/7584549611.html,False,True,
"$2,300",1,512ft2,-123.042307,**1 BEDROOM SUITE FOR RENT...AVAILABLE FROM MARCH 1 ST***,49.243352,1.0,3028 KINGS AVENUE,CA,Vancouver,V5R4T2,BC,House,https://vancouver.craigslist.org/van/apa/d/vancouver-bedroom-suite-for/7584369521.html,False,,
"$3,300",1,930ft2,-123.135258,Furnished lord stanley building downtown Great,49.292926,1.0,Alberni,CA,Vancouver,V6G1B3,BC,Apartment,https://vancouver.craigslist.org/van/apa/d/vancouver-furnished-lord-stanley/7575237237.html,True,,
"$3,350",1,1720ft2,-123.075650,1 br & 1 den in King Edward Village complex,49.248983,1.0,4078 Knight Street,CA,Vancouver,V5N5Y9,BC,Apartment,https://vancouver.craigslist.org/van/apa/d/vancouver-br-den-in-king-edward-village/7585692583.html,False,,
"$3,700",1,840ft2,-123.112361,1 Bath + Office + Flex + Parking,49.269048,1.0,,CA,Vancouver,V5Y0E9,BC,Apartment,https://vancouver.craigslist.org/van/apa/d/vancouver-bath-office-flex-parking/7576829470.html,False,,
"$2,500",1,750ft2,-123.039700,Brand new 1 bdrm 1 bath basement,49.280700,1.0,,CA,Vancouver,V5K,BC,Apartment,https://vancouver.craigslist.org/van/apa/d/vancouver-brand-new-bdrm-bath-basement/7585745032.html,False,,
"$6,500",3,,-123.123447,Move in Today - Brand New 3 Bed + 2 Bath in Yaletown,49.276828,2.0,1107 Richards Street,CA,Vancouver,V6B5H7,BC,Apartment,https://vancouver.craigslist.org/van/apa/d/vancouver-move-in-today-brand-new-bed/7580296345.html,False,,
"$2,000",3,350ft2,-123.068643,Brand new 3 bdrms/3 full baths front duplex,49.248085,3.0,Miller,CA,Vancouver,V5N3Z9,BC,Apartment,https://vancouver.craigslist.org/van/apa/d/vancouver-brand-new-bdrms-full-baths/7562948168.html,False,,
"$2,450",2,659ft2,-123.003153,Metrotown 2 bedroom 2 bath,49.227511,2.0,6098 Station St,CA,Burnaby,V5H4L7,BC,Apartment,https://vancouver.craigslist.org/bnc/apa/d/burnaby-metrotown-bedroom-bath/7577771188.html,False,,
"$2,000",2,555ft2,-123.013637,"Spacious 2 bedroom, 2 bath suite at Triomphe on the 40th floor",49.267718,2.0,1888 Gilmore Avenue,CA,Burnaby,V5C6V1,BC,Apartment,https://vancouver.craigslist.org/bnc/apa/d/burnaby-spacious-bedroom-bath-suite-at/7579549151.html,False,True,True
"$3,100",2,677ft2,-123.030610,"Fully equipped fitness centre, BBQ & dining areas, In-suite laundry",49.305963,2.0,1550 Oxford St,CA,North Vancouver,V7J2K8,BC,Apartment,https://vancouver.craigslist.org/bnc/apa/d/north-vancouver-fully-equipped-fitness/7585369535.html,False,,
"$2,100",2,,-122.862600,"Electric vehicle charging stations, Courtyard, Closet organizers",49.323100,2.0,3370 Dewdney Trunk Road,CA,Port Moody,V3H,BC,Apartment,https://vancouver.craigslist.org/pml/apa/d/port-moody-electric-vehicle-charging/7581336915.html,False,,
"$5,395",1,1150ft2,-122.936900,1 Private room left available - Very close to SFU,49.264000,,,,,,,,https://vancouver.craigslist.org/bnc/apa/d/burnaby-private-room-left-available/7571814760.html,False,,
"$4,450",,1130ft2,,,,1.0,,CA,Vancouver,V5W,BC,House,https://vancouver.craigslist.org/van/apa/d/vancouver-clean-bright-semi-ground-lvl/7584449038.html,False,,
"$3,400",2,835ft2,-123.091700,@@ Clean Bright Semi-Ground Lvl 2-Bedroom Suite,49.232700,1.0,,CA,West Vancouver,V7V1X1,BC,Apartment,https://vancouver.craigslist.org/nvn/apa/d/west-vancouver-studio-bachelor-top/7585841169.html,False,,
"$3,600",1,857ft2,-123.168526,STUDIO BACHELOR-  TOP FLOOR- near Ambleside area,49.330046,2.0,,CA,Richmond,V6X1P6,BC,Apartment,https://vancouver.craigslist.org/rch/apa/d/richmond-bedroom-bath-in-richmond/7579622123.html,False,True,
"$3,255",2,823ft2,-123.126346,2 Bedroom 2 Bath in Richmond,49.189574,1.0,East 52 Ave,CA,Vancouver,V5P4G3,BC,House,https://vancouver.craigslist.org/van/apa/d/vancouver-completely-renovated-bedrooms/7585994995.html,False,,
"$2,525",3,755ft2,-123.063312,Completely renovated 3 bedrooms 2 bath,49.222280,2.0,,CA,Richmond Southwest,V7E,BC,House,https://vancouver.craigslist.org/rch/apa/d/richmond-southwest-richmond-bedroom/7585165575.html,False,,
$900,4,,-123.170500,"Richmond, 4 bedroom house for rent",49.132300,1.0,112 street,CA,Delta Northeast,V4C,BC,House,https://vancouver.craigslist.org/rds/apa/d/delta-northeast-3bedmain-floor/7582960916.html,False,,
,3,,-122.912400,3BedMain floor,49.155100,1.0,capella drive,CA,Burnaby,V3J7W6,BC,House,https://vancouver.craigslist.org/pml/apa/d/burnaby-near-lougheed-mall-br-den1/7585792174.html,False,True,
"$1,800",2,850ft2,-122.904731,"Near Lougheed mall, 2 BR+ 1 Den+1 bathroom + 2 parking",49.261129,2.0,555,CA,West Vancouver,V7V4X8,BC,Apartment,https://vancouver.craigslist.org/nvn/apa/d/west-vancouver-bedroom-condo-2nd-floor/7575766411.html,False,True,
"$1,795",2,450ft2,-123.254994,"2 Bedroom Condo, 2nd Floor",49.263971,3.0,,CA,Burnaby,V5H3G1,BC,Apartment,https://vancouver.craigslist.org/bnc/apa/d/burnaby-brand-new-metrotown-2br/7575061257.html,False,,
"$2,800",2,750ft2,-122.995200,Brand New Metrotown 2br Apartment with spectacular view for rent,49.230200,3.0,,CA,Surrey,V3X2L8,BC,House,https://vancouver.craigslist.org/rds/apa/d/surrey-luxury-bed-plus-den-25-bath/7578316682.html,False,,
"$3,500",3,1150ft2,-122.855301,Luxury 3 bed plus Den 2.5 bath townhouse,49.111922,3.0,15326 21 Ave,CA,Surrey,V4A6A8,BC,House,https://vancouver.craigslist.org/rds/apa/d/surrey-nicely-updated-rancher-in-south/7577220190.html,False,,
"$3,850",3,2500ft2,-122.797873,Nicely updated rancher in South Surrey for rent,49.040162,1.0,15235 Flamingo Place,CA,Surrey,V3R6T6,BC,House,https://vancouver.craigslist.org/rds/apa/d/surrey-newly-renod-bed-bath-and-den/7578807547.html,False,,
"$3,900",3,1253ft2,-122.799833,"Newly Reno’d 3 Bed, 1 Bath and Den Home in a Quiet Cul-De-Sac",49.201266,1.0,,CA,Surrey,V4N5A5,BC,Apartment,https://vancouver.craigslist.org/rds/apa/d/surrey-brand-new-renovated-suite/7585661955.html,False,,
"$2,400",2,1050ft2,-122.758859,Brand New Renovated Suite!!,49.158075,1.0,,CA,Langley,V3A8A4,BC,Apartment,https://vancouver.craigslist.org/rds/apa/d/langley-large-bedroom-cat-ok/7577529971.html,False,,
"$2,950",2,1025ft2,-122.666473,Large 2 Bedroom - Cat OK,49.104893,1.0,527 Carnarvon Street,CA,New Westminster,V3L0J4,BC,Apartment,https://vancouver.craigslist.org/bnc/apa/d/new-westminster-bedroom-suite-in-suite/7575403956.html,False,,
"$3,200",1,1088ft2,-122.908446,1 bedroom suite/in suite laundry/on site amenities/close to Skytrains,49.204540,1.0,1455 Robson st,CA,Vancouver,V6E1C5,BC,Apartment,https://vancouver.craigslist.org/van/apa/d/vancouver-bdrm-fully-furnished-unit/7578962707.html,False,,
"$3,250",2,1400ft2,-123.129530,2 bdrm fully Furnished Unit Downtown,49.287515,1.0,1008 Cambie,CA,Vancouver,V6B6J7,BC,Apartment,https://vancouver.craigslist.org/van/apa/d/vancouver-modern-furnished-pet-friendly/7585264541.html,True,,True
"$3,500",1,1600ft2,-123.117771,"Modern, Furnished & Pet Friendly with Parking - Yaletown",49.274811,3.0,,CA,Maple Ridge Northwest,V4R,BC,House,https://vancouver.craigslist.org/pml/apa/d/maple-ridge-northwest-maple-ridge-brand/7585176794.html,False,,
"$2,995",4,1100ft2,-122.516900,Maple Ridge Brand New House Main House For Rent,49.290300,1.0,,CA,Burnaby,V5C,BC,Apartment,https://vancouver.craigslist.org/bnc/apa/d/burnaby-concord-brentwood-hillside-west/7584566614.html,False,,
"$2,000",1,800ft2,-123.007400,"Concord Brentwood Hillside West, 41st Flr *Sky Collection*, 1 BR/1BA",49.274000,1.0,1371 Blackwood Street,CA,White Rock,V4B3W6,BC,Apartment,https://vancouver.craigslist.org/rds/apa/d/white-rock-luxury-vinyl-plank-flooring/7582428892.html,False,,
"$1,900",2,,-122.805800,"Luxury vinyl plank flooring, Private balconies, Brand new blinds",49.025900,1.0,,CA,Delta,V4L1C1,BC,Apartment,https://vancouver.craigslist.org/rds/apa/d/delta-brand-new-suite-private-entrance/7584963150.html,False,,
"$2,225",1,523ft2,-123.065693,"BRAND NEW Suite, Private Entrance + Parking, Laundry, Utilities Incl",49.020591,2.0,216,CA,Maple Ridge,V2X3A9,BC,House,https://vancouver.craigslist.org/van/apa/d/maple-ridge-renovated-h/7582382066.html,False,,
"$3,400",3,720ft2,-122.616400,"Renovated T/H: 2lvl,3bdr,1.5bth,carport,full kitchen,",49.219600,3.0,15564 Victoria Ave,CA,White Rock,V4B1H8,BC,House,https://vancouver.craigslist.org/rds/apa/d/white-rock-east-beach-white-rock/7564090732.html,False,,
"$2,900",3,601ft2,-122.791215,East Beach White Rock,49.017699,1.0,marine drive,CA,Surrey,V4A7M7,BC,Apartment,https://vancouver.craigslist.org/rds/apa/d/surrey-beautiful-fully-furnished/7576381584.html,False,,
"$3,300",2,2200ft2,-122.829900,Beautiful Fully Furnished 2 Bedroom Basement Walk Out,49.037400,2.0,24905,CA,Maple Ridge East,V2W,BC,House,https://vancouver.craigslist.org/pml/apa/d/maple-ridge-east-bedroom-plus-den/7585284863.html,False,,
"$2,250",4,535ft2,-122.485100,4 Bedroom plus Den Family Home in the Thornhill area of Maple Ridge!,49.206800,3.0,3639 W 16th Ave,CA,Vancouver,V6S2B8,BC,Apartment,https://vancouver.craigslist.org/van/apa/d/vancouver-luxury-2bd3bth-penthouse-for/7585948653.html,False,,
"$2,750",2,986ft2,-123.184594,luxury 2bd3bth penthouse for rent,49.258000,,,,,,,,https://vancouver.craigslist.org/van/apa/d/vancouver-bedroom-suite-condo-style-for/7584975559.html,False,,
"$1,900",,,,,,2.0,,CA,Burnaby,V5J,BC,Apartment,https://vancouver.craigslist.org/bnc/apa/d/burnaby-available-now-spacious-bed-bath/7585205994.html,False,,
"$1,750",3,,-122.992100,AVAILABLE NOW Spacious 3 Bed 2 Bath In The Heart Of Burnaby,49.203800,1.0,,CA,Coquitlam,V3E3L3,BC,Apartment,https://vancouver.craigslist.org/pml/apa/d/coquitlam-bed-bath-furnished-garden/7584558679.html,False,,
"$5,500",2,,-122.795820,2 Bed / 1 Bath Furnished Garden Level Home in Coquitlam,49.316012,1.0,,CA,Burnaby,V5C5G4,BC,House,https://vancouver.craigslist.org/bnc/apa/d/burnaby-new-basement-suite-in-heart-of/7585047913.html,False,,
"$2,595",2,690ft2,-123.003101,New Basement Suite in Heart of Burnaby Heights - 2 Bedroom,49.281097,1.0,2520 Glen Drive,CA,Vancouver,V5T4M8,BC,Apartment,https://vancouver.craigslist.org/van/apa/d/vancouver-one-bedroom-suite-best/7584891896.html,False,,
"$3,600",1,1868ft2,-123.081393,"One Bedroom Suite, Best location, Close to everything",49.262225,3.0,3796 McGill Street,CA,Burnaby,V5C1M2,BC,House,https://vancouver.craigslist.org/van/apa/d/burnaby-orcaref3796mfully-furnished-and/7585360893.html,False,,
"$4,600",5,1030ft2,-123.020881,(ORCA_REF#3796M)***Fully Furnished and luxurious designed interiors,49.288353,1.0,903-1212 Howe,CA,Vancouver,V6Z2S9,BC,Apartment,https://vancouver.craigslist.org/van/apa/d/vancouver-year-lease-furnished-in/7585715122.html,False,,
,1,,-123.122469,1 Year Lease - FURNISHED in Downtown Core,49.280963,2.0,1431 Haro Street,CA,Vancouver,V6G1G2,BC,Apartment,https://vancouver.craigslist.org/van/apa/d/vancouver-pet-welcome-furnished-br/7572069867.html,False,,
"$3,600",3,900ft2,-123.131371,Pet Welcome Furnished 3 BR Townhouse @1431 Haro Available April 1st,49.287436,1.0,2351 beta ave,CA,Burnaby,V5C5M8,BC,Apartment,https://vancouver.craigslist.org/bnc/apa/d/burnaby-apartment-for-rent-near/7585087187.html,False,,
"$1,990",2,898ft2,-122.997692,Apartment for rent near brentwood mall,49.262026,1.0,14000,CA,Richmond Southeast,V6W,BC,Apartment,https://vancouver.craigslist.org/rch/apa/d/richmond-southeast-beautiful-bedroom/7574940449.html,False,,
"$2,380",1,,-123.048000,Beautiful 1 Bedroom 1 Bathroom - FEBRAURY 1ST,49.153400,1.0,,CA,Vancouver,V6J4T8,BC,Apartment,https://vancouver.craigslist.org/van/apa/d/vancouver-luxurious-almost-brand-new/7585535615.html,False,,
"$1,600",1,,-123.146000,Luxurious Almost-brand-new 1 bedroom basement suite avail now (RP-SC),49.260300,1.0,131 Regiment Sq,CA,Vancouver,V6B2P2,BC,Apartment,https://vancouver.craigslist.org/van/apa/d/vancouver-fully-furnished-1bed-condo/7583837298.html,False,,
"$5,500",1,2500ft2,-123.113900,"Fully Furnished 1Bed Condo for Rent from February 24th, 2023!",49.278800,2.0,,CA,Vancouver,V6B2P2,BC,Apartment,https://vancouver.craigslist.org/van/apa/d/vancouver-stunning-bed-bath-loft-in/7585772471.html,False,,
"$2,000",2,480ft2,-123.113900,Stunning 2 Bed 2 Bath Loft in Yaletown,49.278800,2.0,333 E 11th Ave,CA,Vancouver,V5T2C6,BC,Apartment,https://vancouver.craigslist.org/van/apa/d/vancouver-beautiful-two-bedroom-at-the/7582922963.html,False,,
"$4,750",2,890ft2,-123.097412,Beautiful two bedroom at The Duke with a wonderful view.,49.261177,1.0,16792 18B Avenue,CA,Surrey,V3Z,BC,House,https://vancouver.craigslist.org/rds/apa/d/surrey-bedroom-suite-in-brand-new-home/7566409709.html,False,,
"$2,600",2,657ft2,-122.825100,2 Bedroom suite in Brand new home,49.106400,4.0,University Cres,CA,Burnaby,V5A0A8,BC,Apartment,https://vancouver.craigslist.org/bnc/apa/d/burnaby-sfu-penthouse-apartment-3b35b/7580052795.html,False,,
"$2,300",3,,-122.910462,SFU Penthouse Apartment 3b+3.5b,49.278934,2.0,,CA,Port Coquitlam Central,V3B,BC,Apartment,https://vancouver.craigslist.org/pml/apa/d/port-coquitlam-central-bedroom-bathroom/7583944395.html,False,,
"$1,895",3,,-122.764900,3 bedroom  2 bathroom Large house,49.274000,1.0,1022 Nelson Street,CA,Vancouver,V6E,BC,Apartment,https://vancouver.craigslist.org/van/apa/d/vancouver-full-size-stainless-steel/7571975431.html,False,,
"$2,950",1,560ft2,-123.129800,"Full size stainless steel appliances, LVP flooring, Bike Storage",49.283300,2.0,3370 Dewdney Trunk Rd.,CA,Port Moody,V3H,BC,Apartment,https://vancouver.craigslist.org/pml/apa/d/port-moody-courtyard-quartz-countertops/7583880037.html,False,,
"$5,495",2,1317ft2,-122.862600,"Courtyard, Quartz countertops, Roller shades",49.323100,3.0,,CA,Vancouver,V5Z3G9,BC,House,https://vancouver.craigslist.org/van/apa/d/vancouver-pet-friendly-townhouse-at/7585730569.html,False,,
"$3,550",3,691ft2,-123.117685,Pet friendly Townhouse at Weston Walk 6358 Ash St,49.227514,2.0,1289 Hornby Street,CA,Vancouver,V6Z1W7,BC,Apartment,https://vancouver.craigslist.org/van/apa/d/vancouver-brand-new-one-burrard-26th-fl/7571655360.html,False,True,
"$2,300",2,750ft2,-123.129560,Brand New One Burrard 26th Fl Apartment For Rent,49.277462,1.0,105 West Keith Rd.,CA,North Vancouver,V7M2G7,BC,Apartment,https://vancouver.craigslist.org/nvn/apa/d/north-vancouver-febr-1st-one-bedroom/7577099895.html,False,,
"$5,500",1,1669ft2,-123.074598,Febr. 1st *** One bedroom for rent***,49.316310,2.0,811 Helmcken Street,CA,Vancouver,V6Z2Y6,BC,Apartment,https://vancouver.craigslist.org/van/apa/d/vancouver-bed-bath-furnished-condo/7584355553.html,True,True,
"$3,495",2,2000ft2,-123.125722,2 Bed 2 Bath Furnished Condo Downtown Vancouver,49.278908,2.0,,CA,Vancouver,V6B3N9,BC,Apartment,https://vancouver.craigslist.org/van/apa/d/vancouver-fully-furnished-2br-2ba-condo/7585572771.html,False,,
"$2,750",2,536ft2,-123.124530,Fully Furnished 2BR/2BA Condo @ Metropolis - Avail March 1st,49.275530,,,,,,,,https://vancouver.craigslist.org/van/apa/d/vancouver-new-west-end-studio-pets/7579774259.html,False,,
"$2,885",,902ft2,,,,2.0,1604-8725 University Cres,CA,Burnaby,V5A0A6,BC,Apartment,https://vancouver.craigslist.org/bnc/apa/d/burnaby-sfu-burnaby-campus-apartment/7584864864.html,False,,
"$4,994",2,1602ft2,-122.909567,SFU Burnaby Campus Apartment 2BR for Rent - $3000,49.279607,2.0,,CA,Burnaby,V5H3G1,BC,Apartment,https://vancouver.craigslist.org/bnc/apa/d/burnaby-fully-furnished-3br-2ba-condo/7585810931.html,False,,
"$4,600",2,950ft2,-122.995200,Fully Furnished 3BR + 2BA Condo @ Villa Jardin in Highgate Burnaby,49.230200,2.0,1425 Haro Street,CA,Vancouver,V6G,BC,Apartment,https://vancouver.craigslist.org/van/apa/d/vancouver-pet-friendly-furnished/7584717866.html,False,,
"$2,080",2,720ft2,-123.140800,Pet Friendly Furnished 2 Bedroom @1425 Haro -Available March 1st,49.299000,1.0,583 Beach Crescent,CA,Vancouver,V6Z3E5,BC,Apartment,https://vancouver.craigslist.org/van/apa/d/vancouver-28th-floor-unfinish-bedroom/7570868312.html,False,,
"$3,600",1,900ft2,-123.128929,28th Floor Unfinish 1 Bedroom Luxury Apartment Rental at Park West 2,49.273321,2.0,938 Nelson Street,CA,Vancouver,V6Z3A7,BC,Apartment,https://vancouver.craigslist.org/van/apa/d/vancouver-spacious-bedroom-bathroom/7578926202.html,True,True,
"$5,950",2,1468ft2,-123.125392,Spacious 2 bedroom/2 bathroom,49.280791,2.0,128 W.Cordova Street,CA,Vancouver,V6B0E6,BC,Apartment,https://vancouver.craigslist.org/van/apa/d/vancouver-gastown-furnished-sensational/7585883261.html,,True,
"$2,850",2,407ft2,-123.107127,Gastown Furnished Sensational 2 Level 2 Bed Condo @ Woodward's W-43,49.283013,1.0,,CA,Vancouver,V5X2S6,BC,Apartment,https://vancouver.craigslist.org/rch/apa/d/vancouver-bedroom-at-the-mode-sawmill/7579739688.html,False,True,
,1,,-123.101000,1 Bedroom at The MODE - 3438 Sawmill Cres w/ Parking,49.209600,3.0,,CA,Vancouver,V6P5L7,BC,Apartment,https://vancouver.craigslist.org/van/apa/d/vancouver-furnished-bedroom-house/7573298445.html,False,,
"$3,000",6,,-123.149357,Furnished 6 bedroom house (basement suite) for student group of 6+,49.224481,1.0,1480 Howe Street,CA,Vancouver,V6Z2P8,BC,Apartment,https://vancouver.craigslist.org/van/apa/d/vancouver-bed-studio/7577612711.html,False,True,
"$3,300",1,1087ft2,-123.131816,1 Bed Studio,49.274759,3.0,20057 82Ave,CA,Langley,V2Y2A7,BC,House,https://vancouver.craigslist.org/rds/apa/d/langley-townhouse-3bed-25bath/7569047487.html,False,,
"$3,600",3,578ft2,-122.665315,Townhouse 3Bed 2.5bath,49.151841,2.0,,CA,Burnaby,V5E2P5,BC,House,https://vancouver.craigslist.org/bnc/apa/d/burnaby-new-house-fully-fenced-backyard/7586000579.html,False,,
"$3,100",2,772ft2,-122.969198,"New house, fully fenced backyard, close to transit",49.226840,,,,,,,,https://vancouver.craigslist.org/bnc/apa/d/new-westminster-bright-studio-in-suite/7583514077.html,False,,
"$5,900",,1634ft2,,,,2.0,,CA,Vancouver,V5R,BC,House,https://vancouver.craigslist.org/van/apa/d/vancouver-vancouver-three-bedroom-two/7577750693.html,False,,
"$6,800",3,1633ft2,-123.040700,Vancouver Three Bedroom Two Bath For Rent,49.239700,1.0,,CA,Vancouver,V5Y4B4,BC,Apartment,https://vancouver.craigslist.org/van/apa/d/vancouver-main-cambie-house-upper-for/7584225527.html,False,,
"$2,250",2,558ft2,-123.110400,Main / Cambie House Upper for rent,49.249200,2.0,Hornby,CA,Vancouver,V6Z1W7,BC,Apartment,https://vancouver.craigslist.org/van/apa/d/vancouver-brand-new-luxurious-two/7575684568.html,False,True,True
"$6,550",2,2300ft2,-123.129616,"BRAND-NEW, Luxurious Two Bedroom Unit at One Burrard!",49.277489,2.0,yale road,CA,Chilliwack,V2R4K8,BC,Apartment,https://vancouver.craigslist.org/rds/apa/d/chilliwack-furnished-apartment-bedrooms/7577188811.html,False,,
"$2,500",2,493ft2,-122.073180,furnished apartment 2 bedrooms 2baths,49.130471,1.0,Aubrey St,CA,Burnaby,V5B,BC,House,https://vancouver.craigslist.org/bnc/apa/d/burnaby-bedroom-bathroom-near-north/7585777811.html,False,,
"$3,200",1,,-122.976100,1 bedroom 1 bathroom near North Burnaby secondary school,49.276900,3.0,,CA,Surrey,V3W4L8,BC,House,https://vancouver.craigslist.org/rds/apa/d/surrey-luxury-bed-plus-den-25-bath/7580859307.html,False,,
"$2,800",3,,-122.856846,Luxury 3 bed plus Den 2.5 bath townhouse,49.125515,3.0,480 W 28th Ave,CA,Vancouver,V5Y2K9,BC,House,https://vancouver.craigslist.org/van/apa/d/vancouver-qe-park-modern-bed-25-bath/7584509466.html,False,,
"$2,115",3,420ft2,-123.114757,【QE Park Modern 3 Bed 2.5 Bath Townhouse for Rent】,49.246089,1.0,E27,CA,Vancouver,V5V3G9,BC,House,https://vancouver.craigslist.org/van/apa/d/vancouver-fully-furnished-bedroom/7572990977.html,False,,
,2,,-123.105240,Fully Furnished 2 bedroom,49.246630,1.0,,CA,Vancouver,V5N5A9,BC,House,https://vancouver.craigslist.org/van/apa/d/vancouver-bedroom-bright-and-brand-new/7584920127.html,False,,
"$3,500",2,1000ft2,-123.058600,2 bedroom bright and brand new basement suite,49.250700,1.0,,CA,Richmond,V6Y4K6,BC,Apartment,https://vancouver.craigslist.org/rch/apa/d/richmond-furnished-1bdrm-condo/7582234187.html,False,True,True
"$2,380",1,850ft2,-123.123715,Furnished 1bdrm Condo available Feb 1,49.167855,1.0,3370 Dewdney Trunk Road,CA,Port Moody,V3H,BC,Apartment,https://vancouver.craigslist.org/pml/apa/d/port-moody-double-sinks-bike-storage/7584661428.html,False,,
"$6,995",1,1100ft2,-122.862600,"Double Sinks, Bike storage, Smart-tech USB charging ports",49.323100,2.0,,,,,,,https://vancouver.craigslist.org/van/apa/d/yaletown-townhouse-short-term-miniumum/7579662990.html,False,,
"$2,000",1,831ft2,-123.122879,Yaletown Townhouse Short term miniumum 30 days Max Aug 31/23,49.276819,,9319 University Crescent,CA,Burnaby,V5A4Y1,BC,Apartment,https://vancouver.craigslist.org/bnc/apa/d/burnaby-furnished-master-bedroom-with/7584711521.html,False,,
"$1,400",,,,,,1.0,1022 Nelson Street,CA,Vancouver,V6E,BC,Apartment,https://vancouver.craigslist.org/van/apa/d/vancouver-social-room-bike-storage-full/7560742195.html,False,,
"$3,000",1,1400ft2,-122.904857,Furnished Master bedroom with private washroom on SFU burnaby campus,49.277721,1.0,,CA,Burnaby,V5H3G1,BC,Apartment,https://vancouver.craigslist.org/bnc/apa/d/burnaby-2bed2bathbalconyparkingstorage/7572381866.html,False,,
"$4,800",2,1677ft2,-123.129800,"Social room, Bike Storage, Full size stainless steel appliances",49.283300,2.0,156 street,CA,Surrey North,V3R,BC,House,https://vancouver.craigslist.org/rds/apa/d/surrey-north-3bed-bath-house-for-rent/7585266579.html,False,,
"$2,950",2,980ft2,-122.995200,2Bed2BathBalconyParkingStorage - Station Square2,49.230200,2.0,1517 Comox,CA,Vancouver,V6G1P3,BC,Apartment,https://vancouver.craigslist.org/van/apa/d/vancouver-available-may-1st-pet-allowed/7579780705.html,False,,
"$2,800",3,1000ft2,-122.813100,3bed 2 bath house for rent,49.194800,1.0,555 Sydney Avenue,CA,Coquitlam,V3K3K1,BC,Apartment,https://vancouver.craigslist.org/bnc/apa/d/coquitlam-brand-new-bed-den-for-rent/7575380100.html,False,,
"$2,750",2,700ft2,-123.135565,Available May 1st - Pet Allowed Furnished 2 Bedroom @ 1517 Comox,49.285979,1.0,179,CA,Surrey,V3S5H4,BC,House,https://vancouver.craigslist.org/rds/apa/d/surrey-bedroom-basement-for-rent-ground/7585803189.html,False,,
"$2,250",1,619ft2,-122.887566,BRAND NEW 1 BED + DEN FOR RENT,49.248240,1.0,,CA,Burnaby,V5A0A7,BC,Apartment,https://vancouver.craigslist.org/bnc/apa/d/burnaby-sfu-new-bed-bath-furnished-condo/7585628323.html,False,,
"$5,735",2,1100ft2,-122.726029,2 Bedroom Basement For Rent - Ground Level,49.105235,1.0,,CA,Surrey,V4A5N1,BC,House,https://vancouver.craigslist.org/rch/apa/d/surrey-south-surrey-upper-level/7576363113.html,False,,
,2,,-122.908688,SFU NEW 2-bed 1-bath Furnished Condo,49.275911,2.0,3537 Oak Street,CA,Vancouver,V5Z1Y5,BC,Apartment,https://vancouver.craigslist.org/van/apa/d/vancouver-elegant-shaughnessy-apartment/7584318036.html,False,,
"$1,500",3,300ft2,-122.855900,South Surrey upper level furnished suite,49.030100,1.0,Walnut Street,CA,Vancouver,V6J3R2,BC,House,https://vancouver.craigslist.org/van/apa/d/vancouver-rare-spacious-bed-den-bath/7583693546.html,False,,
"$3,650",1,722ft2,-123.127344,*** Elegant Shaughnessy Apartment with Parking ***,49.254088,2.0,,CA,Surrey,V4A5G5,BC,House,https://vancouver.craigslist.org/rds/apa/d/surrey-bedroom-bsmt-suite-for-rent-in/7577854523.html,False,,
"$2,900",2,845ft2,-123.148941,"Rare spacious 2 bed + Den, 2 bath Townhouse in the heart of Kitsilano",49.273433,1.0,,CA,Vancouver,V5W3J6,BC,Apartment,https://vancouver.craigslist.org/van/apa/d/vancouver-newly-renovated-furnished/7583276428.html,False,,
"$2,500",2,1342ft2,-122.765093,2 Bedroom bsmt suite for rent in South Surrey,49.042296,2.0,,CA,White Rock,V4B2E3,BC,Apartment,https://vancouver.craigslist.org/rds/apa/d/white-rock-bedroom-suite-ocean-view/7585529995.html,False,,
"$3,800",3,1114ft2,-123.083611,"Newly Renovated, Furnished Garden Suite for rent - 3bdrm, 1.5bathroom",49.238757,1.0,,CA,Vancouver,V5S4X2,BC,House,https://vancouver.craigslist.org/van/apa/d/vancouver-newly-renovated-and-furnished/7574586453.html,False,,
"$2,600",2,,-122.809832,2 Bedroom Suite- Ocean View,49.025819,3.0,,CA,Surrey,V4N4P6,BC,House,https://vancouver.craigslist.org/rds/apa/d/surrey-elegant-family-house-in-fraser/7582564587.html,False,,
"$1,850",3,,-123.038000,Newly renovated and furnished 3 Bed 3 Bath flat for Rent,49.217500,4.0,Smithe,CA,Vancouver,V6B3B4,BC,Apartment,https://vancouver.craigslist.org/van/apa/d/vancouver-pet-allowed-available-may-1st/7576800734.html,False,True,
"$2,780",4,830ft2,-122.773633,Elegant Family House in Fraser Heights for rent (ID 5050),49.208009,1.0,1550 Oxford St,CA,North Vancouver,V7J2K8,BC,Apartment,https://vancouver.craigslist.org/bnc/apa/d/north-vancouver-parcel-delivery-lockers/7581799859.html,False,,
$1,1,1350ft2,-123.119478,Pet Allowed - Available May 1st - Furnished 1 Bedroom@ 68 Smithe,49.279049,1.0,2475 West 7th Ave,CA,Vancouver,V6K3P7,BC,Apartment,https://vancouver.craigslist.org/van/apa/d/vancouver-kits-garden-suite/7585375920.html,False,,
"$2,500",1,750ft2,-123.030610,"Parcel delivery lockers, In-floor heating, Rooftop terrace",49.305963,1.0,2801 Dollarton Hwy,CA,North Vancouver,V7H1B1,BC,House,https://vancouver.craigslist.org/nvn/apa/d/north-vancouver-stunning-bedroom/7582608579.html,False,,
"$6,000",1,1533ft2,-123.161780,***Kits Garden Suite***,49.265709,3.0,Willingdon Avenue,CA,Burnaby,V5H1P8,BC,Apartment,https://vancouver.craigslist.org/bnc/apa/d/burnaby-metrotown-one-bedroom-apartment/7584735124.html,False,,
"$1,800",3,600ft2,-122.996535,Stunning 3 Bedroom Furnished Waterfront Home,49.308365,1.0,3438 Sawmill Crescent,CA,Vancouver,V5S4X2,BC,Apartment,https://vancouver.craigslist.org/van/apa/d/vancouver-brand-new-bed-bath-flex-2200/7582944485.html,False,,
"$3,600",1,1000ft2,-123.003359,Metrotown One Bedroom Apartment for Rent,49.231499,1.0,Delvista,CA,Delta Northeast,V4C,BC,House,https://vancouver.craigslist.org/rds/apa/d/delta-northeast-bedroom-legal-basement/7575408843.html,False,,
"$2,900",1,700ft2,-123.038000,"Brand new 1 Bed 1 Bath + Flex $2,200",49.217500,1.0,204 19th Street E,CA,North Vancouver,V7M1X4,BC,House,https://vancouver.craigslist.org/van/apa/d/north-vancouver-bedroom-basement-suite/7584065408.html,False,,
"$2,700",2,1250ft2,-122.912400,2 bedroom legal basement suite,49.155100,1.0,,CA,Surrey,V4N4H2,BC,Apartment,https://vancouver.craigslist.org/rds/apa/d/surrey-brand-new-12ft-ceiling-basement/7582554523.html,False,,
"$4,350",2,3509ft2,-123.072214,2 Bedroom basement suite in Central Lonsdale,49.326226,1.0,,CA,Vancouver,V6A2A2,BC,Apartment,https://vancouver.craigslist.org/van/apa/d/vancouver-spacious-bed-den-or-bed-suite/7580283087.html,True,True,
"$3,000",2,505ft2,-122.736514,Brand New 12ft ceiling basement suite - utilities included,49.187943,2.0,,CA,Vancouver,V6E,BC,Apartment,https://vancouver.craigslist.org/van/apa/d/vancouver-bedroom-bathroom-furnished/7574550425.html,False,,
"$2,925",2,787ft2,-123.090800,SPACIOUS 2 Bed & Den or 3 Bed SUITE FOR LEASE,49.277900,2.0,6658 Dow Avenue,CA,Burnaby,V5H3E1,BC,Apartment,https://vancouver.craigslist.org/bnc/apa/d/burnaby-metrotown-rare-large-corner-bed/7584958622.html,False,,
"$1,950",2,,-123.129800,"2 BEDROOM, 2 BATHROOM Furnished apartment in Downtown Vancouver",49.283300,2.0,9213 Odlin Road,CA,Richmond,V6X1K3,BC,Apartment,https://vancouver.craigslist.org/rch/apa/d/richmond-bedroom-bath-in-richmond-new/7578547645.html,False,,
"$9,950",2,2500ft2,-123.000980,Metrotown! Rare Large Corner 2 Bed & 2 Bath,49.223664,2.0,305 Morrissey Rd,CA,Port Moody,V3H0E4,BC,Apartment,https://vancouver.craigslist.org/van/apa/d/port-moody-brand-new-bedroom-condo-in/7585380674.html,True,True,True
"$1,750",2,800ft2,-123.116800,2 Bedroom & 2 Bath in Richmond (New),49.183600,1.0,156,CA,Surrey North,V3R,BC,House,https://vancouver.craigslist.org/rds/apa/d/surrey-north-beautiful-bedroom-basement/7579239783.html,False,,
"$2,200",1,570ft2,-122.829017,BRAND NEW 1 Bedroom Condo in Port Moody!,49.280482,1.0,,CA,Surrey,V3R8T5,BC,Apartment,https://vancouver.craigslist.org/rds/apa/d/surrey-fully-furnished-one-bedroom-condo/7580116892.html,False,,
"$1,800",1,1150ft2,-122.813100,BEAUTIFUL 1 BEDROOM BASEMENT SUITE FOR RENT $1400 - Guilford/Fleetwood,49.194800,1.0,301 Maude Road,CA,Port Moody,V3H5B1,BC,Apartment,https://vancouver.craigslist.org/pml/apa/d/port-moody-br-condo-near-north-shore/7584971702.html,False,,
"$2,600",1,950ft2,-122.801181,Fully Furnished One Bedroom Condo,49.197808,1.0,,CA,Vancouver,V6B3N6,BC,Apartment,https://vancouver.craigslist.org/van/apa/d/vancouver-d8-furnished-bedroom-downtown/7579883628.html,False,,
"$2,350",2,998ft2,-122.830232,2 BR Condo near North Shore Area,49.284025,1.0,,CA,Vancouver,V6N3H8,BC,House,https://vancouver.craigslist.org/van/apa/d/vancouver-spacious-bedrooms-house-in/7581851852.html,False,,
"$3,500",1,1100ft2,-123.124710,D8 - Furnished 1 Bedroom Downtown Vancouver in Yaletown 0831,49.276381,4.0,,CA,Vancouver,V6G,BC,Apartment,https://vancouver.craigslist.org/van/apa/d/vancouver-rare-luxurious-furnished-unit/7575592525.html,False,,
"$5,500",5,823ft2,-123.165879,Spacious 5 Bedrooms house in Kerrisdale,49.232603,2.0,7371 Westminster Hwy,CA,Richmond,V6X4C6,BC,Apartment,https://vancouver.craigslist.org/rch/apa/d/richmond-richmond-center-highly/7585064810.html,True,True,
"$3,100",2,896ft2,-123.140800,Rare Luxurious Furnished Unit Downtown Coal Harbour w/ Water Views!,49.299000,2.0,,,,,,,https://vancouver.craigslist.org/van/apa/d/vancouver-available-march-1st-brand-new/7584707960.html,False,,
"$3,000",2,872ft2,-123.144621,"Richmond Center Highly Functional 2 bed, 2 bath unit, AC",49.170211,,9887 Whalley Blvd,CA,Surrey,V3T2H3,BC,Apartment,https://vancouver.craigslist.org/rds/apa/d/surrey-bedroom-bath-at-park-boulevard/7582451478.html,False,True,
"$2,350",,630ft2,,,,1.0,,CA,Vancouver,V6K3Y2,BC,Apartment,https://vancouver.craigslist.org/van/apa/d/vancouver-two-bedroom-furnished/7571382386.html,False,,
"$1,400",1,600ft2,-122.842984,"1 Bedroom 1 Bath at Park Boulevard, King George Station",49.182489,1.0,,CA,Surrey Inner Northwest,V3T,BC,Apartment,https://vancouver.craigslist.org/rds/apa/d/surrey-inner-northwest-like-new-bedroom/7585236050.html,False,,
"$2,200",2,670ft2,-123.167982,Two Bedroom Furnished Apartment Suite in Restored Heritage Home #442,49.268169,2.0,2601 Whiteley Court,CA,North Vancouver,V7J0A3,BC,Apartment,https://vancouver.craigslist.org/nvn/apa/d/north-vancouver-ideal-lynn-valley/7584260491.html,False,,
"$2,650",2,848ft2,-122.845400,Like New 2 Bedroom at Alumni in Central Surrey,49.189400,2.0,1155 The High Street,CA,Coquitlam,V3B0A9,BC,Apartment,https://vancouver.craigslist.org/pml/apa/d/coquitlam-bedrooms-bathrooms-by/7585555724.html,False,,
"$3,200",2,600ft2,-123.041595,Ideal Lynn Valley Location! Bright & Spacious 2 Bed 2 Bath,49.332915,2.0,,CA,Burnaby,V5C4A8,BC,Apartment,https://vancouver.craigslist.org/bnc/apa/d/burnaby-concord-brentwood-1br-suite-on/7585630302.html,False,,
"$7,600",2,3300ft2,-122.796096,2 Bedrooms/2 Bathrooms by Coquitlam Centre Shopping Mall July 1/23,49.281742,1.0,2507 Maple Street,CA,Vancouver,V6J1Z6,BC,Apartment,https://vancouver.craigslist.org/van/apa/d/vancouver-bed-penthouse-private-rooftop/7585012614.html,False,,
"$8,500",1,1450ft2,-122.995902,Concord Brentwood-1BR suite on 16th Floor - Available Now,49.265682,2.0,1022 Nelson Street,CA,Vancouver,V6E,BC,Apartment,https://vancouver.craigslist.org/van/apa/d/vancouver-elevators-in-suite-laundry/7572723815.html,False,,
"$2,800",2,800ft2,-123.150837,2 BED PENTHOUSE W/PRIVATE ROOFTOP DECK AVAIL MARCH 1st,49.263629,2.0,1723 Alberni Street,CA,Vancouver,V6G3G9,BC,Apartment,https://vancouver.craigslist.org/van/apa/d/vancouver-one-bedroom-den-stanley-park/7577030893.html,False,,
"$2,675",2,400ft2,-123.129800,"2 elevators, In-suite laundry, Underground parking",49.283300,1.0,1661 Quebec St.,CA,Vancouver,V5Y0C8,BC,Apartment,https://vancouver.craigslist.org/van/apa/d/vancouver-furnished-false-creek-seawall/7585960964.html,False,,
,1,,-123.132899,One bedroom + Den - Stanley Park,49.291546,2.0,,CA,North Vancouver,V7L3W7,BC,Apartment,https://vancouver.craigslist.org/nvn/apa/d/north-vancouver-bedroom/7585928997.html,False,,
"$1,900",2,540ft2,-123.103631,FURNISHED FALSE CREEK SEAWALL- 2 BED 2 BATH- 2 PARKING-OLYMPIC VILLAGE,49.271543,1.0,3370 Dewdney Trunk Road,CA,Port Moody,V3H,BC,Apartment,https://vancouver.craigslist.org/pml/apa/d/port-moody-water-included-double-sinks/7581363220.html,False,,
"$4,495",1,1050ft2,-123.057600,1 bedroom,49.316000,2.0,,CA,Burnaby,V5H3G1,BC,Apartment,https://vancouver.craigslist.org/bnc/apa/d/burnaby-metrotown-2br-2bth-furnished/7578803910.html,False,,
"$2,400",2,680ft2,-122.862600,"Water included, Double Sinks, Playground",49.323100,2.0,555 Sydney Ave.,CA,Coquitlam,V3K3K1,BC,Apartment,https://vancouver.craigslist.org/pml/apa/d/coquitlam-new-luxury-condo-in-coquitlam/7572181757.html,False,,
"$3,350",2,1000ft2,-122.995200,Metrotown 2br 2bth FURNISHED Highrise,49.230200,2.0,535 Shaw avenue,CA,Coquitlam,V3K2R1,BC,Apartment,https://vancouver.craigslist.org/pml/apa/d/coquitlam-bedroom-apartment-for-rent/7579615587.html,False,,
"$2,800",2,830ft2,-122.887566,NEW LUXURY CONDO IN COQUITLAM WEST,49.248240,1.0,,CA,Vancouver,V6E4P5,BC,Apartment,https://vancouver.craigslist.org/van/apa/d/vancouver-gorgeous-3br-3ba-suite-trump/7585615671.html,False,True,
"$2,380",2,535ft2,-122.888174,2 bedroom apartment for rent,49.244158,3.0,2222 Bellevue Avenue,CA,West Vancouver,V7V4V7,BC,Apartment,https://vancouver.craigslist.org/van/apa/d/west-vancouver-months-free-rent/7577893835.html,False,,
"$4,195",3,1129ft2,-123.124230,Gorgeous 3BR/3BA suite @ Trump Tower w/spectacular views - Avail Now,49.286877,1.0,8188 Fraser Street,CA,Vancouver,V5X2T5,BC,Apartment,https://vancouver.craigslist.org/van/apa/d/vancouver-beautiful-and-bright-br-condo/7579922652.html,False,,
"$4,295",2,1225ft2,-123.171063,"2 Months Free Rent ! Beautifully renovated 2BR/1BA, Pets friendly!",49.329780,1.0,934 Calverhall Street,CA,North Vancouver,V7L1Y1,BC,House,https://vancouver.craigslist.org/nvn/apa/d/north-vancouver-orcaref934c-renovated/7584377329.html,False,,
"$2,380",1,578ft2,-123.091134,Beautiful and Bright 1 br condo,49.211148,2.0,,CA,Anmore,V3H5G9,BC,House,https://vancouver.craigslist.org/pml/apa/d/anmore-3200sf-4bed-den-bath-acreage/7585656070.html,False,,
"$4,995",3,1100ft2,-123.046045,(ORCA_REF#934C) Renovated 3 Bedrooms / 2 Bathroom Ocean View House,49.315888,4.0,1011 Beach Avenue,CA,Vancouver,V6E1X9,BC,Apartment,https://vancouver.craigslist.org/van/apa/d/vancouver-iconic-beach-avenue-ocean/7569344907.html,False,True,
"$1,800",4,690ft2,-122.850924,"3200sf 4bed +1 den, 4 bath, Acreage house in Anmore for rent!",49.315499,2.0,1028 Barclay,CA,Vancouver,V6Z1Y2,BC,Apartment,https://vancouver.craigslist.org/van/apa/d/vancouver-uniqueaccommodationscomid5287/7577025619.html,False,,
"$2,885",2,902ft2,-123.135379,Iconic Beach Avenue Ocean View Bright 2 bed,49.277548,2.0,WEST 64TH AVENUE,CA,Vancouver,V6P2M5,BC,House,https://vancouver.craigslist.org/van/apa/d/vancouver-single-house-for-rent-in/7585245738.html,False,,
"$3,400",2,800ft2,-123.125689,(UniqueAccommodations.com)ID:5287 Luxurious 1222 sqft 2 bdrm in Patina,49.282049,3.0,928 Beatty Street,CA,Vancouver,V6Z3C5,BC,Apartment,https://vancouver.craigslist.org/van/apa/d/vancouver-furnished-bdrm/7580796905.html,False,,True
"$3,100",5,840ft2,-123.131719,SINGLE HOUSE FOR RENT IN MARPOLE,49.213021,1.0,1050 Smithe Street,CA,Vancouver,V6E4H2,BC,Apartment,https://vancouver.craigslist.org/van/apa/d/vancouver-furnished-luxury-condo-short/7567919498.html,False,,True
"$2,399",1,902ft2,-123.116006,Furnished 1 bdrm,49.276257,1.0,610 Granville St.,CA,Vancouver,V6Z1M7,BC,Apartment,https://vancouver.craigslist.org/van/apa/d/vancouver-the-hudson-tower-bed-bath-apt/7573576457.html,False,,
"$9,980",1,1603ft2,-123.125088,FURNISHED LUXURY CONDO ~ Short & Long Term Available,49.282924,2.0,4650 Brentwood Blvd,CA,Burnaby,V5C0C7,BC,Apartment,https://vancouver.craigslist.org/bnc/apa/d/burnaby-two-year-new-mid-level-suite-at/7584725073.html,False,,
"$4,699",2,1000ft2,-123.128189,The Hudson Tower - 2 bed/2 bath Apt w/ Views for Rent,49.275800,1.0,4538 John Street,CA,Vancouver,V5V3X3,BC,House,https://vancouver.craigslist.org/van/apa/d/vancouver-gorgeous-two-bedroom-suite/7579701999.html,False,,
"$2,300",1,550ft2,-122.997626,Two year new mid level suite at The Amazing Brentwood Tower 3,49.266861,1.0,,,,,,,https://vancouver.craigslist.org/van/apa/d/vancouver-room-for-rent/7577839556.html,False,,
"$5,200",2,2250ft2,-123.097449,Gorgeous two bedroom suite available monthly from March,49.243989,,1820 Willingdon Ave,CA,Burnaby,V5C6R5,BC,Apartment,https://vancouver.craigslist.org/bnc/apa/d/burnaby-1bed-den-rental-homes-at-the/7584244202.html,False,,
"$4,500",1,3200ft2,-123.040700,Room for Rent,49.239700,1.0,3102 Windsor Gate,CA,Port Coquitlam Central,V3B,BC,Apartment,https://vancouver.craigslist.org/pml/apa/d/port-coquitlam-central-2br-976ft-north/7567718664.html,False,True,
"$3,650",,860ft2,,,,2.0,Bellevue Avenue,CA,West Vancouver,V7V3R5,BC,Apartment,https://vancouver.craigslist.org/nvn/apa/d/west-vancouver-furnished-bed-bath/7574457868.html,False,,
"$4,800",1,1222ft2,-123.002543,1BED +DEN Rental Homes at The Amazing Brentwood *FIRST MONTH FREE*,49.266957,1.0,,CA,Richmond,V6X1K3,BC,Apartment,https://vancouver.craigslist.org/rch/apa/d/richmond-bed-bath-parking-alexandra/7584339509.html,False,True,
"$3,000",2,3300ft2,-122.764900,2br - 976ft 2 -  North side unit - Huge Balcony with Spectacular View,49.274000,2.0,10862 152 Street,CA,Surrey,V3R4V8,BC,House,https://vancouver.craigslist.org/rds/apa/d/surrey-townhouse-in-guildford-with/7578222873.html,False,True,
"$3,050",1,670ft2,-123.158915,Furnished 1 bed/1 bath Ambleside,49.327674,3.0,Irmin Street,CA,Burnaby,V5J4J9,BC,Apartment,https://vancouver.craigslist.org/bnc/apa/d/burnaby-bed-1bath-with-parking-spot-in/7568336094.html,False,,
"$4,090",2,675ft2,-123.116800,2 Bed 2 Bath 2 Parking Alexandra Court / Walmart Richmond w A/C,49.183600,1.0,,CA,Vancouver,V5Y3H9,BC,House,https://vancouver.craigslist.org/van/apa/d/vancouver-large-furnished-d-in-suite/7578674117.html,False,,
"$3,500",3,889ft2,-122.800509,Townhouse in Guildford with Private Yard + Basement - 3 Bed 3 Bath,49.200249,1.0,2623 Waverley St,CA,Vancouver,V5S2M3,BC,House,https://vancouver.craigslist.org/van/apa/d/vancouver-vancouver-killarney-brand-new/7577583234.html,False,,
"$2,300",1,542ft2,-122.988449,1 bed/1bath with a parking spot in desirable MacPherson Walk East,49.215579,2.0,8052 156 Street,CA,Surrey,V3S4Y9,BC,House,https://vancouver.craigslist.org/nvn/apa/d/surrey-st-cozy-and-well-maintained/7580339970.html,False,,
"$3,900",1,950ft2,-123.110633,Large furnished w/d in-suite! All included!,49.230592,3.0,,CA,Delta Northeast,V4C,BC,Apartment,https://vancouver.craigslist.org/rds/apa/d/delta-northeast-brand-new-bed-bath/7580736836.html,False,,
$975,2,,-123.054012,Vancouver E Killarney Brand New 2 Bed 2 Bath Laneway House for Rent,49.226757,1.0,,CA,Coquitlam,V3K4B5,BC,House,https://vancouver.craigslist.org/pml/apa/d/coquitlam-townhouse-bedrooms-coquitlam/7562926899.html,False,,
,5,,-122.791336,8052 165 St - Cozy and well maintained family home,49.159579,2.0,Turner st,CA,Vancouver,V5L4L9,BC,House,https://vancouver.craigslist.org/van/apa/d/vancouver-bedroom-with-bath-in-new/7585719558.html,False,,
"$2,890",2,617ft2,-122.912400,BRAND NEW 2 BED 1 BATH,49.155100,1.0,6138,CA,Surrey,V3X1T1,BC,House,https://vancouver.craigslist.org/rds/apa/d/surrey-brand-new-1500-sq-ft-townhome-in/7584305948.html,False,,
"$3,400",2,,-122.880085,Townhouse 2 bedrooms Coquitlam,49.240617,3.0,100 Ave,CA,Surrey,V3T2W5,BC,Apartment,https://vancouver.craigslist.org/rds/apa/d/surrey-1bed-1bath-with-great-amenities/7585754699.html,True,,
"$4,500",1,839ft2,-123.061748,"1 bedroom with 1 bath  in a new house, near PNE rent",49.279119,1.0,,CA,Burnaby,V3N3C4,BC,House,https://vancouver.craigslist.org/bnc/apa/d/burnaby-luxurious-bedroom-pet-friendly/7581069627.html,False,,
"$3,080",3,830ft2,-122.868261,"Brand New 1,500 Sq Ft townhome in Panorama Ridge with double garage!",49.112894,2.0,1171 Jervis Street,CA,Vancouver,V6E1N5,BC,Apartment,https://vancouver.craigslist.org/van/apa/d/vancouver-luxury-bdrm-den-condo-at/7577363727.html,False,,
"$2,590",1,1600ft2,-122.844744,1bed 1bath with great amenities at awesome location,49.191406,2.0,3370 Dewdney Trunk Road,CA,Port Moody,V3H,BC,Apartment,https://vancouver.craigslist.org/pml/apa/d/port-moody-private-balconies-soaker-tub/7581382348.html,False,,
"$1,995",2,511ft2,-122.942677,Luxurious 2 Bedroom PET FRIENDLY Townhouse Available Mar 1 (RP-SC),49.216683,1.0,,CA,Vancouver,V6H2Z7,BC,House,https://vancouver.craigslist.org/van/apa/d/vancouver-best-location-quiet-family/7568309254.html,False,,
"$2,260",2,760ft2,-123.134644,Luxury 2 bdrm + den Condo at Davie Village,49.282901,4.0,,CA,Vancouver,V6Z0A5,BC,Apartment,https://vancouver.craigslist.org/van/apa/d/vancouver-fully-furnished-large-bedroom/7585749547.html,False,,
"$2,500",1,750ft2,-122.862600,"Private balconies, Soaker tub, Dishwasher",49.323100,1.0,6389,CA,Burnaby,V5B,BC,House,https://vancouver.craigslist.org/bnc/apa/d/burnaby-bedroom-bathroom-kitchen-living/7575410422.html,False,,
"$4,900",5,2614ft2,-123.132362,Best Location! Quiet! Family Friendly! Available NOW!,49.248030,2.0,1111 East 12th Ave.,CA,Vancouver,V5T4B7,BC,Apartment,https://vancouver.craigslist.org/van/apa/d/vancouver-main-floor-bedroom-plus-low/7574647511.html,False,,
"$2,000",1,700ft2,-123.129137,Fully Furnished Large 1 Bedroom + den in Yaletown. #802,49.276989,1.0,9888 university Crescent,CA,Burnaby,V5G3E9,BC,Apartment,https://vancouver.craigslist.org/bnc/apa/d/burnaby-brand-new-sfu-bedroom-for-rent/7581088760.html,False,,
"$3,200",3,1200ft2,-122.976100,3 bedroom 2 bathroom 1 kitchen 1 living room 1 garage suite for rent,49.276900,1.0,Elgin ave,CA,Burnaby,V5H1S1,BC,House,https://vancouver.craigslist.org/bnc/apa/d/burnaby-metrotown-bed-spacious-basement/7575654771.html,False,,
"$1,060",1,100ft2,-123.081240,Main Floor 1 Bedroom plus Low Ceiling Crawlspace: Mount Pleasant,49.259669,1.0,,CA,North Vancouver Northwest Central,V7N,BC,Apartment,https://vancouver.craigslist.org/nvn/apa/d/north-vancouver-northwest-central/7585716298.html,False,,
"$3,100",1,1500ft2,-123.006400,Brand New SFU 1 bedroom for rent,49.243200,1.0,,CA,Coquitlam North,V3J,BC,Apartment,https://vancouver.craigslist.org/pml/apa/d/coquitlam-north-unfurnished-bed-near/7582889341.html,False,True,
"$1,850",1,555ft2,-122.982412,Metrotown 1-bed spacious basement for rent,49.229553,2.0,602-36 Water St.,CA,Vancouver,V6B2J1,BC,Apartment,https://vancouver.craigslist.org/van/apa/d/vancouver-one-month-rental-for-feb-only/7582255501.html,False,,
"$2,995",2,1100ft2,-123.067900,Apartment,49.350000,1.0,Whisper way coquitlam,CA,Port Coquitlam North,V3E,BC,Apartment,https://vancouver.craigslist.org/pml/apa/d/port-coquitlam-north-2bedroom-condo/7585110009.html,False,True,
"$4,280",2,1150ft2,-122.871600,Unfurnished 2 bed - Near Como and Clarke - New Condo **,49.265000,2.0,16A Ave,CA,Surrey,V4A6K7,BC,House,https://vancouver.craigslist.org/rds/apa/d/surrey-bedroom-den-house-for-rent/7583731626.html,False,,
"$2,235",1,634ft2,-123.104002,One Month Rental for Feb Only - Funky Furnished Loft,49.283368,3.0,146,CA,Delta,V4M1P2,BC,Apartment,https://vancouver.craigslist.org/rds/apa/d/delta-bedroom-above-ground-suite/7583208020.html,False,,
"$6,900",2,5000ft2,-122.738400,2bedroom condo,49.316700,1.0,Smithe St,CA,Vancouver,V6B3B4,BC,Apartment,https://vancouver.craigslist.org/van/apa/d/vancouver-furnished-luxury-condo-short/7581826604.html,False,,True
"$3,300",2,670ft2,-122.830560,"2 bedroom + Den, House for rent",49.032262,1.0,Lougheed Highway,CA,Burnaby,V5C0B2,BC,Apartment,https://vancouver.craigslist.org/bnc/apa/d/burnaby-concord-brentwood-brand-new/7576788991.html,False,,
"$4,100",2,1500ft2,-123.085433,2 bedroom above ground suite,49.013540,1.0,Ocean Park Rd,CA,Surrey,V4A9L1,BC,House,https://vancouver.craigslist.org/rds/apa/d/surrey-stunning-panoramic-ocea-view/7580567411.html,False,,
"$2,000",1,900ft2,-123.119478,FURNISHED LUXURY CONDO ~ Short & Long Term,49.279049,5.0,183 Georgia Street,CA,Vancouver,V6A2V4,BC,Apartment,https://vancouver.craigslist.org/van/apa/d/vancouver-large-1br-flex-balcony/7565486985.html,False,,
"$2,200",1,620ft2,-122.994218,Concord Brentwood Brand New 1 bedroom for rent,49.264455,1.0,828 Royal Avenue,CA,New Westminster,V3M0A9,BC,House,https://vancouver.craigslist.org/bnc/apa/d/new-westminster-spacious-two-bedroom/7584297052.html,False,,
"$1,750",5,,-122.874732,Stunning Panoramic Ocea view! Private Luxury Family House,49.034383,2.0,12339 Steveston Hwy,CA,Richmond,V7A4S4,BC,Apartment,https://vancouver.craigslist.org/rch/apa/d/richmond-ironwood-beds-bath-for-rent/7582639640.html,False,,
"$2,200",1,,-123.100038,Large 1BR + Flex w/ Balcony - 24/7 Security + Pet friendly + Gym,49.278727,1.0,113A,CA,Surrey North,V3R,BC,House,https://vancouver.craigslist.org/rds/apa/d/surrey-north-bright-bedroom-bath-upper/7578816790.html,False,,
"$2,650",2,729ft2,-122.915832,Spacious Two Bedroom Townhome,49.202957,1.0,,CA,Surrey Outer Northwest,V3V,BC,House,https://vancouver.craigslist.org/rds/apa/d/surrey-outer-northwest-one-bedroom/7585718403.html,False,,
"$2,500",2,700ft2,-123.146341,Ironwood 2 beds 1 bath for rent,49.133993,1.0,2133 Douglas Rd,CA,Burnaby,V5B3N1,BC,Apartment,https://vancouver.craigslist.org/bnc/apa/d/burnaby-brentwood-2b2b-high-rise/7582274614.html,False,,
"$2,749",3,880ft2,-122.813100,Bright 3 Bedroom/1 Bath Upper Floor of Home with Large Backyard,49.194800,2.0,26905-,CA,Surrey Northeast,V4N,BC,House,https://vancouver.craigslist.org/rds/apa/d/surrey-northeast-bedroom-basement-suite/7578520992.html,False,,
"$3,450",1,1650ft2,-122.873000,ONE BEDROOM BASEMENT FOR RENT NOW!!,49.188900,1.0,784 EAST 62ND AVENUE,CA,Vancouver,V5X3Z7,BC,House,https://vancouver.craigslist.org/van/apa/d/vancouver-newly-constructed-laneway/7571033101.html,False,,
"$1,900",2,850ft2,-122.988620,Brentwood 2B2B High-Rise Apartment for Rent,49.263385,1.0,264,CA,Langley Township East,V4W,BC,House,https://vancouver.craigslist.org/rds/apa/d/langley-township-east-basement-suite/7586023409.html,False,,
"$4,090",2,675ft2,-122.732600,### 2 Bedroom Basement suite in a house For rent,49.170700,1.0,,CA,Vancouver,V6J3S4,BC,Apartment,https://vancouver.craigslist.org/van/apa/d/vancouver-beautiful-suite-at-kits-point/7573828453.html,False,,
"$2,450",2,510ft2,-123.088029,Newly Constructed Laneway house for Rent,49.213887,2.0,,CA,Vancouver,V6B5T5,BC,Apartment,https://vancouver.craigslist.org/van/apa/d/vancouver-modern-furnished-2br-park/7585728170.html,False,,
"$6,499",2,4925ft2,-122.497700,Basement suite available immediately,49.071300,2.0,8598 145street,CA,Surrey,V3S2Y4,BC,House,https://vancouver.craigslist.org/rds/apa/d/surrey-basement-for-rent/7582982626.html,False,,
"$2,350",2,643ft2,-123.150172,"Beautiful Suite at Kits Point - 2 Floors, 2 Bdrm, 2 Bath - Furnished",49.272097,1.0,,CA,Vancouver,V6K2K4,BC,Apartment,https://vancouver.craigslist.org/van/apa/d/vancouver-bedroom-bath-ground-level/7585726487.html,False,,
"$3,000",2,1100ft2,-123.123486,Modern Furnished 2BR @ Park Plaza-6 Mth Rental - Available May 1st~,49.276284,1.0,,CA,Burnaby,V5H3G1,BC,Apartment,https://vancouver.craigslist.org/bnc/apa/d/burnaby-metrotown-bedroom-apartment/7566100361.html,False,,
"$2,500",2,718ft2,-122.820700,Basement for Rent,49.159073,2.0,2528 Collingwood St,CA,Vancouver,V6R0C4,BC,Apartment,https://vancouver.craigslist.org/van/apa/d/vancouver-kitsilano-penthouse/7581880651.html,False,,
"$2,700",1,1200ft2,-123.170021,1 Bedroom 1 Bath Ground Level Suite,49.262939,1.0,,CA,Port Coquitlam Central,V3B,BC,Apartment,https://vancouver.craigslist.org/pml/apa/d/port-coquitlam-central-short-term-rental/7581895064.html,False,,
"$1,200",2,,-122.995200,metrotown 2 bedroom apartment available now,49.230200,1.0,146 st,CA,Surrey North,V3R,BC,Apartment,https://vancouver.craigslist.org/rds/apa/d/surrey-north-bedroom-suite/7585557183.html,False,,
"$2,900",1,863ft2,-123.181864,Kitsilano Penthouse,49.264051,1.0,Olive Avenue,CA,Burnaby,V5H4N8,BC,Apartment,https://vancouver.craigslist.org/bnc/apa/d/burnaby-fully-furnished-br-bath/7580962353.html,False,,
"$1,600",1,,-122.764900,short term rental,49.274000,1.0,833 HOMER ST,CA,Vancouver,V6B2W5,BC,Apartment,https://vancouver.craigslist.org/van/apa/d/vancouver-pet-friendly-bed-den-bath-in/7585038652.html,True,,
"$2,700",1,700ft2,-122.813100,1 bedroom  suite,49.194800,1.0,RUSSELL AVE,CA,White Rock,V4B3W6,BC,House,https://vancouver.craigslist.org/rch/apa/d/white-rock-new-house-basement-for-rent/7574655115.html,False,,
"$1,800",1,900ft2,-123.009817,Fully Furnished 1 BR 1 BATH  Unlimited Internet at Patterson Skytrain,49.231847,1.0,,CA,Vancouver,V5R5K6,BC,House,https://vancouver.craigslist.org/van/apa/d/vancouver-new-bedroom-laneway-house-for/7583506694.html,False,,
"$5,000",1,1500ft2,-123.117739,PET FRIENDLY 1 BED + DEN + 1 BATH IN VANCOUVER,49.279229,2.0,3370 Dewdney Trunk Rd.,CA,Port Moody,V3H,BC,Apartment,https://vancouver.craigslist.org/pml/apa/d/port-moody-fire-sprinklers-soaker-tub/7574959687.html,False,,
"$3,800",1,960ft2,-122.805800,New house basement for rent,49.025900,1.0,Rena Crescent,CA,West Vancouver,V7V2X5,BC,House,https://vancouver.craigslist.org/nvn/apa/d/west-vancouver-yvr-rental-west/7574535035.html,True,,
"$1,550",2,700ft2,-123.033200,"New 2 bedroom laneway house for rent Feb 1,2023",49.233700,8.0,,CA,Coquitlam North,V3J,BC,House,https://vancouver.craigslist.org/pml/apa/d/coquitlam-north-2bedroom2bathroom-suite/7584239802.html,False,,
"$1,950",1,500ft2,-122.862600,"Fire Sprinklers, Soaker tub, Courtyard",49.323100,2.0,,CA,Surrey,V3X1A9,BC,Apartment,https://vancouver.craigslist.org/rds/apa/d/surrey-2bedroom-washroom-for-rent/7585625640.html,False,,
"$3,200",7,,-123.159227,YVR Rental-West Vancouver Ambleside Luxury House for Rent,49.342041,2.0,robson street,CA,Vancouver,V6G2L6,BC,Apartment,https://vancouver.craigslist.org/van/apa/d/vancouver-west-end-1br/7579850301.html,False,,
"$2,500",2,500ft2,-122.871600,2Bedroom+2Bathroom Suite,49.265000,1.0,1128 Alberni Street,CA,Vancouver,V6E4T9,BC,Apartment,https://vancouver.craigslist.org/van/apa/d/vancouver-bedroom-with-c-north-facing/7578053227.html,False,,
$70,2,1000ft2,-122.823601,2bedroom  2 washroom for rent,49.107019,1.0,,,,,,,https://vancouver.craigslist.org/bnc/apa/d/burnaby-private-furnished-bedroom/7580857899.html,False,,
"$1,500",1,600ft2,-123.135281,West End 1Br,49.291635,,East 8th Ave,CA,Vancouver,V5N4T8,BC,Apartment,https://vancouver.craigslist.org/nvn/apa/d/vancouver-furnished-brand-new-bedroom/7575811939.html,False,,
"$2,050",1,600ft2,-123.124339,1 Bedroom with A/C + north facing office/den (Downtown Vancouver),49.285749,3.0,Keefer Place,CA,Surrey,V3Z,BC,Apartment,https://vancouver.craigslist.org/bnc/apa/d/surrey-fully-furnished-bedroom-by/7575809295.html,False,True,
"$2,500",1,533ft2,-122.930100,PRIVATE FURNISHED BEDROOM,49.227500,1.0,105a ave,CA,Surrey Inner Northwest,V3T,BC,House,https://vancouver.craigslist.org/rds/apa/d/surrey-inner-northwest-large-unit/7578857333.html,False,,
"$1,500",,,,,,2.0,,CA,Maple Ridge,V2X5N7,BC,House,https://vancouver.craigslist.org/pml/apa/d/maple-ridge-bed-bath-rancher-style/7583375802.html,False,,
"$2,500",3,,-123.062027,Furnished Brand New 3 Bedroom Duplex with Private Backyard,49.263211,2.0,4288 Grange Street,CA,Burnaby,V5H1S5,BC,Apartment,https://vancouver.craigslist.org/bnc/apa/d/burnaby-br-suite-penthouse-extravagant/7584144735.html,True,True,
"$2,245",1,634ft2,-122.825100,Fully Furnished 1 Bedroom by Tinseltown,49.106400,1.0,1283 Howe Street,CA,Vancouver,V6Z0A5,BC,Apartment,https://vancouver.craigslist.org/van/apa/d/vancouver-pet-friendly-available/7583335980.html,False,,
"$11,800",3,8000ft2,-122.845400,Large Unit Utilities Included,49.189400,1.0,,,,,,,https://vancouver.craigslist.org/rch/apa/d/richmond-richmond-studio-suite-on-2nd/7585754106.html,False,,
"$1,980",3,,-122.614192,3 bed 2 bath Rancher style House for rent,49.229872,,,CA,Vancouver,V5Z4H9,BC,Apartment,https://vancouver.craigslist.org/van/apa/d/vancouver-top-floor-concrete-building/7582270909.html,False,True,
"$1,850",1,1000ft2,-122.999126,1 BR SUITE - PENTHOUSE - EXTRAVAGANT VIEWS!,49.230319,1.0,,CA,Vancouver,V5W,BC,House,https://vancouver.craigslist.org/van/apa/d/vancouver-bedroom-basement/7580496503.html,False,,
"$2,200",1,480ft2,-123.128526,Pet Friendly-Available February 25-Furnished 1 Bedroom@1283 Howe Tate,49.276926,1.0,Regiment sq,CA,Vancouver,V6B1V4,BC,Apartment,https://vancouver.craigslist.org/van/apa/d/vancouver-bedroomden-furnished/7578845070.html,False,True,True
"$2,731",,666ft2,,,,1.0,,CA,Burnaby,V5E2S8,BC,Apartment,https://vancouver.craigslist.org/bnc/apa/d/burnaby-concord-brentwood-condo-one/7580197815.html,False,,
"$1,000",1,,-123.121000,Top floor Concrete Building - 1 Bed and 1 Bath,49.247500,1.0,,,,,,,https://vancouver.craigslist.org/rds/apa/d/surrey-furnished-walkout-studio-for-rent/7574150497.html,False,,
,2,,-123.091700,2 bedroom basement,49.232700,,,CA,Surrey,V3W5T6,BC,Apartment,https://vancouver.craigslist.org/rds/apa/d/surrey-bedroom-bath-basement-suite/7582257584.html,False,,
"$5,500",1,1500ft2,-123.110175,"1 BEDROOM+DEN, FURNISHED, DOWNTOWN,NICE AVAIL feb 1",49.278582,1.0,1425 Haro Street,CA,Vancouver,V6G,BC,Apartment,https://vancouver.craigslist.org/van/apa/d/vancouver-available-march-1st-pet/7567753927.html,False,,
"$3,300",1,646ft2,-122.965000,concord brentwood condo one Bedroom,49.244000,1.0,Binning,CA,Vancouver,V6S0K5,BC,Apartment,https://vancouver.craigslist.org/van/apa/d/vancouver-spacious-ubc-bedroom-condo/7577589378.html,False,,
"$3,250",,1750ft2,,,,3.0,223 Mountain Hwy,CA,North Vancouver,V7J3V5,BC,Apartment,https://vancouver.craigslist.org/nvn/apa/d/north-vancouver-insurance-claims/7584384236.html,False,,
"$3,700",2,,-122.823286,"2 Bedroom / 1 Bath - BASEMENT suite, Newer Build",49.155556,2.0,2388 madison Avenue,CA,Burnaby,V5C5A6,BC,Apartment,https://vancouver.craigslist.org/bnc/apa/d/burnaby-spacious-fulton-bedroom-condo/7583545458.html,False,True,True
"$2,680",2,612ft2,-123.140800,Available March 1st - Pet Allowed Furnished 2 Bedroom @1425 Haro,49.299000,1.0,,CA,Richmond,V6Y4B2,BC,Apartment,https://vancouver.craigslist.org/rch/apa/d/richmond-closed-to-richmond-centre-2b2b/7585362432.html,True,,
"$2,800",3,456ft2,-123.230036,SPACIOUS UBC 3 BEDROOM CONDO with 400 SF PATIO IN BINNING TOWER,49.253159,2.0,308 Morrissey Road,CA,Port Moody,V3H2S9,BC,Apartment,https://vancouver.craigslist.org/pml/apa/d/port-moody-short-term-furnished-rental/7579091273.html,True,True,True
"$1,400",2,500ft2,-123.032380,"Insurance claims , relocating , working in North Vancouver , pet ?",49.305483,1.0,780 handsworth,CA,North Vancouver,V7R3L3,BC,House,https://vancouver.craigslist.org/nvn/apa/d/north-vancouver-spacious-bedroom-garden/7583861667.html,False,,
,1,,-123.008767,Spacious Fulton 1 BEDROOM CONDO NEAR BRENTWOOD,49.267211,1.0,8533 River District Crossing,CA,Vancouver,V5S4X2,BC,Apartment,https://vancouver.craigslist.org/van/apa/d/vancouver-orcaref-unfurnished-penthouse/7584374165.html,True,,
"$3,000",2,947ft2,-123.134693,Closed to Richmond Centre 2b2b condo available NOW,49.168890,3.0,,CA,Surrey Northeast,V4N,BC,House,https://vancouver.craigslist.org/rds/apa/d/surrey-northeast-fleetwood-tynehead/7584285008.html,False,,
"$2,500",1,,-122.828457,Short-term Furnished Rental Apartment,49.277598,1.0,1371 Blackwood Street,CA,White Rock,V4B3W6,BC,Apartment,https://vancouver.craigslist.org/rds/apa/d/white-rock-private-balconies-on-site/7584495397.html,False,,
"$2,750",3,590ft2,-123.090157,Spacious 3 bedroom garden suite,49.352399,1.0,,CA,Port Moody,V3H4T1,BC,House,https://vancouver.craigslist.org/pml/apa/d/port-moody-bedroom-suite-for-rent-in/7579917572.html,False,,
"$2,350",4,510ft2,-123.038000,(ORCA_REF#1701-8533U) *UNFURNISHED ***PENTHOUSE ALERT! Luxurious 4 bed,49.217500,1.0,6525 Lochdale Street,CA,Burnaby,V5B4C8,BC,Apartment,https://vancouver.craigslist.org/bnc/apa/d/burnaby-freshly-renovated-basement/7577865508.html,False,,
"$1,100",1,750ft2,-122.732600,Fleetwood/Tynehead Deluxe 1 Bed Suite,49.170700,1.0,,CA,Vancouver,V6B2P2,BC,Apartment,https://vancouver.craigslist.org/van/apa/d/vancouver-elegant-bed-bath-yaletown/7577919366.html,False,,
,1,,-122.805800,"Private balconies, On-site laundry facility, Mirrored closet doors",49.025900,2.0,W. Georgia St,CA,Vancouver,V6B0K9,BC,Apartment,https://vancouver.craigslist.org/van/apa/d/vancouver-roommate-for-dt-subpenhouse/7578328361.html,False,True,
"$2,000",3,930ft2,-122.833178,3 Bedroom Suite for Rent in Port Moody Heritage Mountain,49.295868,1.0,W 12th Avenue,CA,Vancouver,V5Y1V3,BC,Apartment,https://vancouver.craigslist.org/van/apa/d/vancouver-br-bath/7577733682.html,False,,
"$3,400",2,640ft2,-122.969851,Freshly Renovated Basement Suite (2 bed/1 bath),49.268894,1.0,,CA,Port Coquitlam South,V3C,BC,Apartment,https://vancouver.craigslist.org/pml/apa/d/port-coquitlam-south-1bed-room-den/7584127525.html,False,,
"$6,500",2,1800ft2,-123.113900,Elegant 2 Bed 2 Bath Yaletown Condo with Balcony,49.278800,1.0,,CA,Burnaby,V5C,BC,Apartment,https://vancouver.craigslist.org/bnc/apa/d/burnaby-amazing-brentwood-tower-luxury/7584653226.html,False,,
"$4,400",1,1000ft2,-123.112397,Roommate for DT subpenhouse 1 bd+water view from each windows,49.278895,3.0,,CA,Vancouver,V5W,BC,Apartment,https://vancouver.craigslist.org/van/apa/d/vancouver-lovely-one-bedroom-basement/7583348999.html,False,,
"$2,350",2,620ft2,-123.112987,2 br + 1 bath,49.260384,1.0,3370 Dewdney Trunk Rd.,CA,Port Moody,V3H,BC,Apartment,https://vancouver.craigslist.org/pml/apa/d/port-moody-shaker-cabinets-ceiling-fan/7585601421.html,False,,
"$2,800",1,869ft2,-122.786500,1)Bed room & Den Basement Suite $1600.00,49.243600,1.0,1371 Blackwood Street,CA,White Rock,V4B3W6,BC,Apartment,https://vancouver.craigslist.org/rds/apa/d/white-rock-mirrored-closet-doors-brand/7576996451.html,False,,
"$3,300",3,600ft2,-123.007400,Amazing Brentwood Tower 2 Luxury Sub Penthouse,49.274000,1.0,9888 University Crescent,CA,Burnaby,V5A0A7,BC,Apartment,https://vancouver.craigslist.org/bnc/apa/d/burnaby-oslo-brand-new-stunning-1bdrm/7568501128.html,False,,
"$3,400",1,,-123.091700,Cozy One Bedroom Basement Suite,49.232700,2.0,Richards,CA,Vancouver,V6B2H3,BC,Apartment,https://vancouver.craigslist.org/van/apa/d/vancouver-fully-furnished-serviced/7585716681.html,False,True,
"$6,995",1,1886ft2,-122.862600,"Shaker cabinets, Ceiling Fan, Courtyard",49.323100,1.0,,,,,,,https://vancouver.craigslist.org/van/apa/d/vancouver-luxurious-almost-brand-new/7585631327.html,False,,
"$1,600",2,750ft2,-122.805800,"Mirrored closet doors, Brand new blinds, Luxury vinyl plank flooring",49.025900,,3370 Dewdney Trunk Rd.,CA,Port Moody,V3H,BC,Apartment,https://vancouver.craigslist.org/pml/apa/d/port-moody-soaker-tub-in-unit-laundry/7580729392.html,False,,
"$2,650",1,758ft2,-122.908988,OSLO Brand New Stunning 1bdrm Loft at SFU UniverCity,49.275995,1.0,,,,,,,https://vancouver.craigslist.org/rch/apa/d/richmond-richmond-centre-bedrooms-baths/7584696286.html,False,,
